ID,NAME,ADDRESS,CITY,STATE,ZIP,TYPE,STATUS,POPULATION,COUNTY,COUNTRY,LATITUDE,LONGITUDE,OWNER,BEDS
5793230,CENTRAL VALLEY GENERAL HOSPITAL,1025 NORTH DOUTY STREET,HANFORD,CA,93230,GENERAL ACUTE CARE,CLOSED,49,KINGS,USA,36.33615885,-119.6456673,PROPRIETARY,49
53391362,LOS ROBLES HOSPITAL & MEDICAL CENTER - EAST CAMPUS,150 VIA MERIDA,WESTLAKE VILAGE,CA,91362,GENERAL ACUTE CARE,OPEN,62,VENTURA,USA,34.15493887,-118.8157364,PROPRIETARY,62
11190023,EAST LOS ANGELES DOCTORS HOSPITAL,4060 WHITTIER BOULEVARD,LOS ANGELES,CA,90023,GENERAL ACUTE CARE,OPEN,127,LOS ANGELES,USA,34.0236473,-118.1841648,PROPRIETARY,127
17090028,SOUTHERN CALIFORNIA HOSPITAL AT HOLLYWOOD,6245 DE LONGPRE AVENUE,HOLLYWOOD,CA,90028,GENERAL ACUTE CARE,OPEN,100,LOS ANGELES,USA,34.09639136,-118.3252349,PROPRIETARY,100
23691706,KINDRED HOSPITAL BALDWIN PARK,14148 FRANCISQUITO AVENUE,BALDWIN PARK,CA,91706,GENERAL ACUTE CARE,OPEN,95,LOS ANGELES,USA,34.06303893,-117.9674378,PROPRIETARY,95
25190712,LAKEWOOD REGIONAL MEDICAL CENTER,3700 EAST SOUTH STREET,LAKEWOOD,CA,90712,GENERAL ACUTE CARE,OPEN,172,LOS ANGELES,USA,33.85970662,-118.148403,PROPRIETARY,172
30791016,MONROVIA MEMORIAL HOSPITAL,323 SOUTH HELIOTROPE AVENUE,MONROVIA,CA,91016,GENERAL ACUTE CARE,OPEN,49,LOS ANGELES,USA,34.14875866,-117.9926677,PROPRIETARY,49
30891754,MONTEREY PARK HOSPITAL,900 SOUTH ATLANTIC BOULEVARD,MONTEREY PARK,CA,91754,GENERAL ACUTE CARE,OPEN,101,LOS ANGELES,USA,34.04946606,-118.1382622,PROPRIETARY,101
47090505,STAR VIEW ADOLESCENT - P H F,4025 WEST 226 STREET,TORRANCE,CA,90505,PSYCHIATRIC,OPEN,16,LOS ANGELES,USA,33.82391446,-118.3560969,PROPRIETARY,16
9092879,CORONA REGIONAL MEDICAL CENTER-MAGNOLIA,730 MAGNOLIA AVENUE,CORONA,CA,92879,GENERAL ACUTE CARE,OPEN,78,RIVERSIDE,USA,33.85808331,-117.553858,PROPRIETARY,78
30696101,MODOC MEDICAL CENTER,228 MC DOWELL STREET,ALTURAS,CA,96101,GENERAL ACUTE CARE,OPEN,87,MODOC,USA,41.48005626,-120.545744,GOVERNMENT - LOCAL,87
38593901,SALINAS VALLEY MEMORIAL HOSPITAL,450 EAST ROMIE LANE,SALINAS,CA,93901,GENERAL ACUTE CARE,OPEN,269,MONTEREY,USA,36.65903046,-121.6459838,GOVERNMENT - DISTRICT/AUTHORITY,269
12678414,CORPUS CHRISTI SPECIALTY HOSPITAL,1310 THIRD STREET,CORPUS CHRISTI,TX,78414,GENERAL ACUTE CARE,CLOSED,189,NUECES,USA,27.77851017,-97.39620831,PROPRIETARY,189
15992866,HEALTHBRIDGE CHILDREN'S HOSPITAL-ORANGE,393 S. TUSTIN STREET,ORANGE,CA,92866,CHILDREN,OPEN,27,ORANGE,USA,33.78272717,-117.8338919,PROPRIETARY,27
16192680,HEALTHSOUTH TUSTIN REHABILITATION HOSPITAL,14851 YORBA STREET,TUSTIN,CA,92680,GENERAL ACUTE CARE,OPEN,48,ORANGE,USA,33.74746074,-117.8310556,PROPRIETARY,48
23792621,KINDRED HOSPITAL BREA,875 NORTH BREA BOULEVARD,BREA,CA,92621,GENERAL ACUTE CARE,OPEN,86,ORANGE,USA,33.93449589,-117.8939488,PROPRIETARY,86
24392683,KINDRED HOSPITAL WESTMINSTER,200 HOSPITAL CIRCLE,WESTMINSTER,CA,92683,GENERAL ACUTE CARE,OPEN,109,ORANGE,USA,33.76353321,-117.995256,PROPRIETARY,109
22093277,KAWEAH DELTA MENTAL HEALTH HOSPITAL D/P APH,1100 SO. AKERS STREET,VISALIA,CA,93277,GENERAL ACUTE CARE,OPEN,63,TULARE,USA,36.32084395,-119.3482345,GOVERNMENT - DISTRICT/AUTHORITY,63
1931537,CHARLTON MEMORIAL HOSPITAL,2449 THIRD STREET,FOLKSTON,GA,31537,GENERAL ACUTE CARE,CLOSED,-999,CHARLTON,USA,30.84527535,-82.00505739,GOVERNMENT - DISTRICT/AUTHORITY,-999
5870563,DAUTERIVE HOSPITAL,600 N LEWIS AVE.,NEW IBERIA,LA,70563,GENERAL ACUTE CARE,OPEN,103,IBERIA,USA,30.00690698,-91.79452385,PROPRIETARY,103
13177954,CROCKETT MEDICAL CENTER,1100 EAST LOOP 304,CROCKETT,TX,77954,GENERAL ACUTE CARE,OPEN,25,HOUSTON,USA,31.32360364,-95.43889931,NON-PROFIT,25
4671360,CENTRAL LOUISIANA STATE HOSPITAL,242 W SHAMROCK AVE,PINEVILLE,LA,71360,PSYCHIATRIC,OPEN,128,RAPIDES,USA,31.32737894,-92.44013511,GOVERNMENT - STATE,128
15671222,REEVES MEMORIAL MEDICAL CENTER,409 1ST ST,BERNICE,LA,71222,GENERAL ACUTE CARE,OPEN,11,UNION,USA,32.82399167,-92.65664868,GOVERNMENT - DISTRICT/AUTHORITY,11
16971241,SERENITY SPRINGS SPECIALTY HOSPITAL,309 N MAIN ST,FARMERVILLE,LA,71241,PSYCHIATRIC,OPEN,18,UNION,USA,32.77612793,-92.40562585,PROPRIETARY,18
15371373,RIVERBRIDGE SPECIALTY HOSPITAL,209 FRONT ST.,VIDALIA,LA,71373,LONG TERM CARE,OPEN,40,CONCORDIA,USA,31.56117486,-91.42606698,PROPRIETARY,40
5371418,CITIZENS MEDICAL CENTER,7939 HIGHWAY 165,COLUMBIA,LA,71418,GENERAL ACUTE CARE,OPEN,40,CALDWELL,USA,32.06003995,-92.09913767,GOVERNMENT - DISTRICT/AUTHORITY,40
22830662,BROWN MEMORIAL CONVALESCENT CENTER,545 COOK STREET,ROYSTON,GA,30662,LONG TERM CARE,CLOSED,144,FRANKLIN,USA,34.28325037,-83.11897237,PROPRIETARY,144
70990806,COLLEGE MEDICAL CENTER,2776 PACIFIC AVENUE,LONG BEACH,CA,90806,GENERAL ACUTE CARE,OPEN,121,LOS ANGELES,USA,33.80709287,-118.1933899,PROPRIETARY,121
71794577,KAISER FOUNDATION HOSPITAL - SAN LEANDRO,2500 MERCED STREET,SAN LEANDRO,CA,94577,GENERAL ACUTE CARE,OPEN,216,ALAMEDA,USA,37.7064062,-122.1646545,NOT AVAILABLE,216
72590723,KINDRED HOSPITAL PARAMOUNT,16453 SOUTH COLORADO AVENUE,PARAMOUNT,CA,90723,LONG TERM CARE,OPEN,177,LOS ANGELES,USA,33.88463186,-118.1622671,PROPRIETARY,177
73790650,DEPARTMENT OF STATE HOSPITAL-METROPOLITAN,11401 BLOOMFIELD AVENUE,NORWALK,CA,90650,PSYCHIATRIC,OPEN,1265,LOS ANGELES,USA,33.92803135,-118.0679897,GOVERNMENT - STATE,1265
196162274,PINCKNEYVILLE COMMUNITY HOSPITAL,5383 STATE ROUTE 154,PINCKNEYVILLE,IL,62274,CRITICAL ACCESS,OPEN,-999,PERRY,USA,38.084846,-89.349108,GOVERNMENT - LOCAL,17
85531419,ST JOSEPH'S HOSPITAL - SAVANNAH,11705 MERCY BOULEVARD,SAVANNAH,GA,31419,GENERAL ACUTE CARE,OPEN,-999,CHATHAM,USA,31.98543032,-81.15455637,NON-PROFIT,294
86630165,KINDRED HOSPITAL ROME,320 TURNER MCCALL BOULEVARD,ROME,GA,30165,LONG TERM CARE,OPEN,45,FLOYD,USA,34.25971345,-85.18023963,NOT AVAILABLE,45
87130286,UPSON REGIONAL MEDICAL CENTER,801 W GORDON STREET,THOMASTON,GA,30286,GENERAL ACUTE CARE,OPEN,115,UPSON,USA,32.8862977,-84.33650699,NOT AVAILABLE,115
87531719,PHOEBE SUMTER MEDICAL CENTER,126 HIGHWAY 280 W,AMERICUS,GA,31719,GENERAL ACUTE CARE,OPEN,76,SUMTER,USA,32.06696234,-84.2560502,NOT AVAILABLE,76
87931830,ROOSEVELT WARM SPRINGS LTAC HOSPITAL,6135 ROOSEVELT HIGHWAY,WARM SPRINGS,GA,31830,LONG TERM CARE,OPEN,32,MERIWETHER,USA,32.88798074,-84.6923449,NOT AVAILABLE,32
90030265,SOUTHEASTERN REGIONAL MEDICAL CENTER,600 CELEBRATE LIFE PKWY,NEWNAN,GA,30265,GENERAL ACUTE CARE,OPEN,25,COWETA,USA,33.38483465,-84.75774669,PROPRIETARY,50
196500984,DOCTORS CENTER HOSPITAL SANFERNANDO DE CAROLINA,"CALLE FERNANDEZ JUNCOS, EDIFICIO JESUS T. PINEIRO",CAROLINA,PR,984,GENERAL ACUTE CARE,OPEN,-999,METRO,PRI,18.380443,-65.95579,NOT AVAILABLE,988
2054311,BROWN CTY COMMUNITY TREATMENT CENTER,3150 GERSHWIN DRIVE,GREEN BAY,WI,54311,PSYCHIATRIC,OPEN,16,BROWN,USA,44.52271226,-87.92482708,GOVERNMENT - LOCAL,16
151253226,WHEATON FRANCISCAN WI HEART SPINE AND ORTHO,10000 WEST BLUEMOUND ROAD,WAUWATOSA,WI,53226,GENERAL ACUTE CARE,OPEN,40,MILWAUKEE,USA,43.03581215,-88.03726582,NOT AVAILABLE,40
196600956,HOSPITAL PSIQUIATRICO DE NINOS YADOLESCENTES,"AVE LAUREL 100, URB. SANTA JUANITA",BAYAMON,PR,956,PSYCHIATRIC,OPEN,-999,BAYAMON,PRI,18.36765566,-66.15439126,NOT AVAILABLE,-999
159171301,COMPASS BEHAVIORAL CENTER OF ALEXANDRIA,6410 MASONIC DRIVE,ALEXANDRIA,LA,71301,GENERAL ACUTE CARE,OPEN,-999,RAPIDES,USA,31.25219156,-92.48198781,NOT AVAILABLE,18
163570394,OCSHNER ST. ANNE GENERAL HOSPITAL,4608 HIGHWAY 1,RACELAND,LA,70394,GENERAL ACUTE CARE,OPEN,38,LAFOURCHE,USA,29.70267142,-90.5652539,NOT AVAILABLE,38
164970748,FELICIANA FORENSIC FACILITY,4502 HWY 951,JACKSON,LA,70748,GENERAL ACUTE CARE,OPEN,-999,EAST FELICIANA,USA,30.83263569,-91.21066049,GOVERNMENT - STATE,-999
160970056,UNITED MEDICAL HEALTHWEST-NEW ORLEANS,3201 WALL BOULEVARD,GRETNA,LA,70056,REHABILITATION,OPEN,-999,JEFFERSON,USA,29.86597947,-90.03069185,PROPRIETARY,14
152354971,RIPON MEDICAL CENTER,845 PARKSIDE ST,RIPON,WI,54971,CRITICAL ACCESS,OPEN,18,FOND DU LAC,USA,43.83437609,-88.81775153,NOT AVAILABLE,18
13402908,VA MEDICAL CENTER - PROVIDENCE,830 CHALKSTONE AVE,PROVIDENCE,RI,2908,GENERAL ACUTE CARE,OPEN,-999,PROVIDENCE,USA,41.83213908,-71.43314954,GOVERNMENT - FEDERAL,-999
15954660,TOMAH VA MEDICAL CENTER,500 E VETERANS ST,TOMAH,WI,54660,MILITARY,OPEN,-999,MONROE,USA,44.00308068,-90.49331901,GOVERNMENT - FEDERAL,-999
5854452,ASCENSION GOOD SAMARITAN HLTH CTR,601 S CENTER AVE,MERRILL,WI,54452,GENERAL ACUTE CARE,OPEN,25,LINCOLN,USA,45.17563254,-89.68183128,NON-PROFIT,25
58796001,RESTPADD PSYCHIATRIC HEALTH FACILITY,2750 EUREKA WAY,REDDING,CA,96001,PSYCHIATRIC,OPEN,16,SHASTA,USA,40.58659539,-122.4119741,PROPRIETARY,16
59093436,THE CHAMPION CENTER,303 SOUTH C STREET,LOMPOC,CA,93436,REHABILITATION,OPEN,34,SANTA BARBARA,USA,34.63537161,-120.4521883,PROPRIETARY,34
23831825,STEWART WEBSTER HOSPITAL,580 ALSTON STREET,RICHLAND,GA,31825,CRITICAL ACCESS,CLOSED,25,STEWART,USA,32.08616827,-84.66069977,GOVERNMENT - DISTRICT/AUTHORITY,25
21891761,KAISER FND HOSP ONTARIO MEDICAL CENTER CAMPUS,2295 S. VINEYARD AVENUE,ONTARIO,CA,91761,GENERAL ACUTE CARE,OPEN,176,SAN BERNARDINO,USA,34.03207956,-117.6085993,NON-PROFIT,176
25692354,LOMA LINDA UNIV. MED. CENTER EAST CAMPUS HOSPITAL,25333 BARTON ROAD,LOMA LINDA,CA,92354,GENERAL ACUTE CARE,OPEN,134,SAN BERNARDINO,USA,34.04730564,-117.2516368,NON-PROFIT,134
44792404,ST. BERNARDINE MEDICAL CENTER,2101 NORTH WATERMAN AVENUE,SAN BERNARDINO,CA,92404,GENERAL ACUTE CARE,OPEN,342,SAN BERNARDINO,USA,34.13467236,-117.27702,NON-PROFIT,342
20092120,KAISER FND HOSP - SAN DIEGO,4647 ZION AVENUE,SAN DIEGO,CA,92120,GENERAL ACUTE CARE,OPEN,414,SAN DIEGO,USA,32.79156258,-117.0951595,NON-PROFIT,414
40992037,SCRIPPS GREEN HOSPITAL,10666 NORTH TORREY PINES ROAD,LA JOLLA,CA,92037,GENERAL ACUTE CARE,OPEN,173,SAN DIEGO,USA,32.8968589,-117.2428711,NON-PROFIT,173
41092024,SCRIPPS MEMORIAL HOSPITAL - ENCINITAS,354 SANTA FE DRIVE,ENCINITAS,CA,92024,GENERAL ACUTE CARE,OPEN,194,SAN DIEGO,USA,33.03734478,-117.2841834,NON-PROFIT,194
42292123,SHARP MARY BIRCH HOSPITAL FOR WOMEN AND NEWBORNS,3003 HEALTH CENTER DRIVE,SAN DIEGO,CA,92123,WOMEN,OPEN,206,SAN DIEGO,USA,32.79829578,-117.1549778,NON-PROFIT,206
51092103,UC SAN DIEGO HEALTH HILLCREST - HILLCREST MEDICAL CENTER,200 WEST ARBOR DRIVE,SAN DIEGO,CA,92103,GENERAL ACUTE CARE,OPEN,390,SAN DIEGO,USA,32.75477023,-117.1657314,NON-PROFIT,390
4894118,CALIFORNIA PACIFIC MED CTR-CALIFORNIA WEST,3700 CALIFORNIA STREET,SAN FRANCISCO,CA,94118,GENERAL ACUTE CARE,OPEN,299,SAN FRANCISCO,USA,37.7865092,-122.4560306,NON-PROFIT,299
5094115,CALIFORNIA PACIFIC MED CTR-PACIFIC CAMPUS,2333 BUCHANAN STREET,SAN FRANCISCO,CA,94115,GENERAL ACUTE CARE,OPEN,309,SAN FRANCISCO,USA,37.79070454,-122.4312945,NON-PROFIT,309
46594117,"ST. MARY'S MEDICAL CENTER, SAN FRANCISCO",450 STANYAN STREET,SAN FRANCISCO,CA,94117,GENERAL ACUTE CARE,OPEN,403,SAN FRANCISCO,USA,37.77408876,-122.4537516,NON-PROFIT,403
20595403,KAISER FND HOSP - SANTA ROSA,401 BICENTENNIAL WAY,SANTA ROSA,CA,95403,GENERAL ACUTE CARE,OPEN,173,SONOMA,USA,38.47179301,-122.7270644,NON-PROFIT,173
19594590,KAISER FND HOSP - REHABILITATION CENTER VALLEJO,975 SERENO DRIVE,VALLEJO,CA,94590,GENERAL ACUTE CARE,OPEN,248,SOLANO,USA,38.12690208,-122.2483773,NON-PROFIT,248
53195695,WOODLAND MEMORIAL HOSPITAL,1325 COTTONWOOD STREET,WOODLAND,CA,95695,GENERAL ACUTE CARE,OPEN,108,YOLO,USA,38.66392502,-121.7921452,NON-PROFIT,108
1294609,ALTA BATES SUMMIT MED CTR-SUMMIT CAMPUS-SUMMIT,3100 SUMMIT STREET,OAKLAND,CA,94609,GENERAL ACUTE CARE,OPEN,75,ALAMEDA,USA,37.82013961,-122.2640042,NON-PROFIT,75
39794578,SAN LEANDRO HOSPITAL,13855 EAST 14TH STREET,SAN LEANDRO,CA,94578,GENERAL ACUTE CARE,OPEN,93,ALAMEDA,USA,37.71228835,-122.1434937,NON-PROFIT,93
46694545,ST. ROSE HOSPITAL,27200 CALAROGA AVENUE,HAYWARD,CA,94545,GENERAL ACUTE CARE,OPEN,217,ALAMEDA,USA,37.63344199,-122.0879125,NON-PROFIT,217
45995204,ST. JOSEPH'S BEHAVIORAL HEALTH CENTER,2510 NORTH CALIFORNIA STREET,STOCKTON,CA,95204,PSYCHIATRIC,OPEN,35,SAN JOAQUIN,USA,37.9765963,-121.2910709,NON-PROFIT,35
46095204,ST. JOSEPH'S MEDICAL CENTER OF STOCKTON,1800 NORTH CALIFORNIA STREET,STOCKTON,CA,95204,GENERAL ACUTE CARE,OPEN,364,SAN JOAQUIN,USA,37.97046719,-121.2881828,NON-PROFIT,364
13291741,FOOTHILL PRESBYTERIAN HOSPITAL-JOHNSTON MEMORIAL,250 SOUTH GRAND AVENUE,GLENDORA,CA,91741,GENERAL ACUTE CARE,OPEN,105,LOS ANGELES,USA,34.13265458,-117.8712597,NON-PROFIT,105
14791204,GLENDALE MEMORIAL HOSPITAL AND HEALTH CENTER,1420 SOUTH CENTRAL AVENUE,GLENDALE,CA,91204,GENERAL ACUTE CARE,OPEN,334,LOS ANGELES,USA,34.12816563,-118.2566432,NON-PROFIT,334
19090027,KAISER FOUNDATION LOS ANGELES MEDICAL CENTER,4867 SUNSET BOULEVARD,LOS ANGELES,CA,90027,GENERAL ACUTE CARE,OPEN,460,LOS ANGELES,USA,34.09857365,-118.2941753,NON-PROFIT,460
19391402,KAISER PERMANENTE PANORAMA CITY,13652 CANTARA STREET,PANORAMA CITY,CA,91402,GENERAL ACUTE CARE,OPEN,218,LOS ANGELES,USA,34.21856419,-118.4302193,NON-PROFIT,218
36691356,PROVIDENCE TARZANA MEDICAL CENTER,18321 CLARK STREET,TARZANA,CA,91356,GENERAL ACUTE CARE,OPEN,249,LOS ANGELES,USA,34.17039322,-118.5319041,NON-PROFIT,249
42990020,SHRINERS HOSPITAL FOR CHILDREN - L.A.,3160 GENEVA STREET,LOS ANGELES,CA,90020,GENERAL ACUTE CARE,OPEN,60,LOS ANGELES,USA,34.06720478,-118.2863921,NON-PROFIT,60
50190716,GARDENS REGIONAL HOSPITAL AND MEDICAL CENTER,21530 SOUTH PIONEER BOULEVARD,HAWAIIAN GARDENS,CA,90716,GENERAL ACUTE CARE,OPEN,107,LOS ANGELES,USA,33.83364001,-118.079678,NON-PROFIT,107
45295422,ADVENTIST HEALTH CLEARLAKE,15630 18TH AVE - HWY 53,CLEARLAKE,CA,95422,GENERAL ACUTE CARE,OPEN,32,LAKE,USA,38.93561886,-122.6201445,NON-PROFIT,32
6193638,VALLEY CHILDREN'S HOSPITAL,9300 VALLEY CHILDREN'S PLACE,MADERA,CA,93638,CHILDREN,OPEN,356,MADERA,USA,36.88404783,-119.8002424,NON-PROFIT,356
11792270,EISENHOWER MEDICAL CENTER,39-000 BOB HOPE DRIVE,RANCHO MIRAGE,CA,92270,GENERAL ACUTE CARE,OPEN,489,RIVERSIDE,USA,33.76335207,-116.4062411,NON-PROFIT,489
15295124,GOOD SAMARITAN HOSPITAL-SAN JOSE,2425 SAMARITAN DRIVE,SAN JOSE,CA,95124,GENERAL ACUTE CARE,OPEN,404,SANTA CLARA,USA,37.25207874,-121.9465769,NON-PROFIT,404
20495051,KAISER FND HOSP - SANTA CLARA,700 LAWRENCE EXPRESSWAY,SANTA CLARA,CA,95051,GENERAL ACUTE CARE,OPEN,327,SANTA CLARA,USA,37.33540138,-121.998873,NON-PROFIT,327
27094304,LUCILE SALTER PACKARD CHILDREN'S HOSP. AT STANFORD,725 WELCH ROAD,PALO ALTO,CA,94304,GENERAL ACUTE CARE,OPEN,302,SANTA CLARA,USA,37.43600458,-122.17539,NON-PROFIT,302
19494063,KAISER FND HOSP - REDWOOD CITY,1100 VETERANS BOULEVARD,REDWOOD CITY,CA,94063,GENERAL ACUTE CARE,OPEN,149,SAN MATEO,USA,37.48884784,-122.2233901,NON-PROFIT,149
18094520,JOHN MUIR MEDICAL CENTER-CONCORD CAMPUS,2540 EAST STREET,CONCORD,CA,94520,GENERAL ACUTE CARE,OPEN,245,CONTRA COSTA,USA,37.98308958,-122.0334968,NON-PROFIT,245
47794509,SUTTER DELTA MEDICAL CENTER,3901 LONE TREE WAY,ANTIOCH,CA,94509,GENERAL ACUTE CARE,OPEN,145,CONTRA COSTA,USA,37.98223445,-121.8029785,NON-PROFIT,145
19995825,KAISER FND HOSP - SACRAMENTO,2025 MORSE AVENUE,SACRAMENTO,CA,95825,GENERAL ACUTE CARE,OPEN,287,SACRAMENTO,USA,38.60179775,-121.393144,NON-PROFIT,287
43195945,SIERRA NEVADA MEMORIAL HOSPITAL,155 GLASSON WAY,GRASS VALLEY,CA,95945,GENERAL ACUTE CARE,OPEN,104,NEVADA,USA,39.22801629,-121.0474998,NON-PROFIT,104
24690623,LA PALMA INTERCOMMUNITY HOSPITAL,7901 WALKER STREET,LA PALMA,CA,90623,GENERAL ACUTE CARE,OPEN,141,ORANGE,USA,33.84751418,-118.0383023,NON-PROFIT,141
38492673,SADDLEBACK MEMORIAL MEDICAL CENTER - SAN CLEMENTE,654 CAMINO DE LOS MARES,SAN CLEMENTE,CA,92673,GENERAL ACUTE CARE,CLOSED,73,ORANGE,USA,33.45706524,-117.6501839,NON-PROFIT,73
13795991,FREMONT MEDICAL CENTER,970 PLUMAS STREET,YUBA CITY,CA,95991,GENERAL ACUTE CARE,OPEN,46,SUTTER,USA,39.14310632,-121.618012,NON-PROFIT,46
10230143,PIEDMONT MOUNTAINSIDE HOSPITAL,1266 EAST CHURCH STREET,JASPER,GA,30143,GENERAL ACUTE CARE,OPEN,48,PICKENS,USA,34.45824868,-84.41291289,NON-PROFIT,52
15530606,ST MARYS HEALTH CARE SYSTEM,1230 BAXTER STREET,ATHENS,GA,30606,GENERAL ACUTE CARE,OPEN,165,CLARKE,USA,33.94722132,-83.40525246,NON-PROFIT,196
14130080,RIDGEVIEW INSTITUTE,3995 SOUTH COBB DRIVE SE,SMYRNA,GA,30080,PSYCHIATRIC,OPEN,92,COBB,USA,33.85644329,-84.51105483,NON-PROFIT,216
502891,WESTERLY HOSPITAL,25 WELLS ST,WESTERLY,RI,2891,GENERAL ACUTE CARE,OPEN,125,WASHINGTON,USA,41.36218908,-71.82530324,NON-PROFIT,125
1553715,ST MARYS HOSPITAL MADISON,700 SOUTH PARK ST,MADISON,WI,53715,GENERAL ACUTE CARE,OPEN,440,DANE,USA,43.05933846,-89.40142922,NON-PROFIT,440
8253213,AURORA PSYCHIATRIC HSPTL,1220 DEWEY AVE,WAUWATOSA,WI,53213,PSYCHIATRIC,OPEN,105,MILWAUKEE,USA,43.0467651,-88.00771643,NON-PROFIT,105
9753097,COLUMBIA CENTER,13125 N PORT WASHINGTON RD,MEQUON,WI,53097,GENERAL ACUTE CARE,OPEN,17,OZAUKEE,USA,43.25667793,-87.92615796,NON-PROFIT,17
4354923,THEDACARE MEDICAL CENTER BERLIN,225 MEMORIAL DRIVE,BERLIN,WI,54923,GENERAL ACUTE CARE,OPEN,25,GREEN LAKE,USA,43.97847715,-88.94122636,NON-PROFIT,25
63072758,MERCY HOSPITAL ROGERS,2710 RIFE MEDICAL LANE,ROGERS,AR,72758,GENERAL ACUTE CARE,OPEN,-999,BENTON,USA,36.30899285,-94.18297802,NOT AVAILABLE,208
10454024,ST CROIX REG MED CTR,235 STATE STREET,SAINT CROIX FALLS,WI,54024,GENERAL ACUTE CARE,OPEN,25,POLK,USA,45.40903243,-92.64257812,NON-PROFIT,25
11854017,WESTFIELDS HOSPITAL,535 HOSPITAL RD,NEW RICHMOND,WI,54017,GENERAL ACUTE CARE,OPEN,25,ST. CROIX,USA,45.11776075,-92.55550038,NON-PROFIT,25
12453081,ST NICHOLAS HOSPITAL,3100 SUPERIOR AVE,SHEBOYGAN,WI,53081,GENERAL ACUTE CARE,OPEN,185,SHEBOYGAN,USA,43.7623479,-87.74753796,NON-PROFIT,185
13154665,VERNON MEM HSPTL,507 SOUTH MAIN ST,VIROQUA,WI,54665,GENERAL ACUTE CARE,OPEN,25,VERNON,USA,43.55167397,-90.88839128,NON-PROFIT,25
72390241,PIH HOSPITAL - DOWNEY,11500 BROOKSHIRE AVENUE,DOWNEY,CA,90241,GENERAL ACUTE CARE,OPEN,199,LOS ANGELES,USA,33.9343518,-118.130904,NON-PROFIT,199
72790503,PROVIDENCE LITTLE COMPANY OF MARY TRANSITIONAL CARE CENTER,4320 MARICOPA STREET,TORRANCE,CA,90503,GENERAL ACUTE CARE,OPEN,115,LOS ANGELES,USA,33.83934812,-118.3597215,NON-PROFIT,115
58592354,LOMA LINDA UNIVERSITY CHILDREN'S HOSPITAL,11234 ANDERSON STREET,LOMA LINDA,CA,92354,CHILDREN,OPEN,343,SAN BERNARDINO,USA,34.05013083,-117.2640945,NON-PROFIT,343
15254904,ASCENSION NE WISCONSIN MERCY CAMPUS,500 S OAKWOOD RD,OSHKOSH,WI,54904,GENERAL ACUTE CARE,OPEN,157,WINNEBAGO,USA,44.01242072,-88.60104549,NON-PROFIT,157
75420007,MEDSTAR-GEORGETOWN UNIVERSITY MEDICAL CENTER,"3800 RESERVOIR ROAD, NW",WASHINGTON,DC,20007,GENERAL ACUTE CARE,OPEN,609,DISTRICT OF COLUMBIA,USA,38.91195851,-77.07525457,GOVERNMENT - STATE,609
31233525,ADVENT HEALTH DADE CITY,13100 FORT KING RD,DADE CITY,FL,33525,GENERAL ACUTE CARE,OPEN,120,PASCO,USA,28.34796286,-82.20072008,PROPRIETARY,120
7233484,DELRAY MEDICAL CENTER,5352 LINTON BLVD,DELRAY BEACH,FL,33484,GENERAL ACUTE CARE,OPEN,536,PALM BEACH,USA,26.43719284,-80.12778775,PROPRIETARY,536
36034758,POINCIANA MEDICAL CENTER,325 CYPRESS PKWY,KISSIMMEE,FL,34758,GENERAL ACUTE CARE,OPEN,76,OSCEOLA,USA,28.14478076,-81.47668786,PROPRIETARY,76
9802703,ARBOUR FULLER HOSPITAL,200 MAY STREET,ATTLEBORO,MA,2703,PSYCHIATRIC,OPEN,103,BRISTOL,USA,41.92408385,-71.36112256,PROPRIETARY,103
9702146,ARBOUR HUMAN RESOURCE INSTITUTE,227 BABCOCK STREET,BROOKLINE,MA,2146,PSYCHIATRIC,OPEN,66,NORFOLK,USA,42.35077951,-71.12124228,PROPRIETARY,66
36232068,ASSENCION ST. VINCENT'S MEDICAL CENTER CLAY COUNTY,1670 ST. VINCENT'S WAY,MIDDLEBURG,FL,32068,GENERAL ACUTE CARE,OPEN,106,CLAY,USA,30.10876243,-81.83268869,NON-PROFIT,106
36334471,ENCOMPASS HEALTH REHABILITATION HOSPITAL OF OCALA,2275 SW 22ND LANE,OCALA,FL,34471,REHABILITATION,OPEN,60,MARION,USA,29.16587554,-82.16233494,PROPRIETARY,60
3906250,"NATCHAUG HOSPITAL, INC.",189 STORRS RD,MANSFIELD CENTER,CT,6250,PSYCHIATRIC,OPEN,-999,TOLLAND,USA,41.74110392,-72.19801148,NON-PROFIT,57
36634997,ENCOMPASS HEALTH REHABILITATION HOSPITAL AT MARTIN HEALTH,5850 SE COMMUNITY DR,STUART,FL,34997,REHABILITATION,OPEN,54,MARTIN,USA,27.13343729,-80.22245582,PROPRIETARY,54
10502114,SHRINERS' HOSPITAL FOR CHILDREN,51 BLOSSOM ST,BOSTON,MA,2114,CHILDREN,OPEN,30,SUFFOLK,USA,42.36309255,-71.06630188,NON-PROFIT,30
10602129,SPAULDING REHABILITATION HOSPITAL,300 1ST AVE,BOSTON,MA,2129,REHABILITATION,OPEN,132,SUFFOLK,USA,42.37850908,-71.04905555,NON-PROFIT,132
11402720,DR JOHN C CORRIGAN MENTAL HEALTH CENTER,49 HILLSIDE STREET,FALL RIVER,MA,2720,PSYCHIATRIC,OPEN,-999,BRISTOL,USA,41.70748691,-71.14571447,GOVERNMENT - STATE,16
12101904,BAY RIDGE HOSPITAL BEVERLY,60 GRANITE STREET,LYNN,MA,1904,PSYCHIATRIC,OPEN,62,ESSEX,USA,42.47162011,-70.95676093,NON-PROFIT,62
12001056,ENCOMPASS HEALTH HOSPITAL OF WESTERN MASS,222 STATE STREET,LUDLOW,MA,1056,REHABILITATION,OPEN,53,HAMPDEN,USA,42.15577594,-72.47207734,PROPRIETARY,53
12142728,T J HEALTH COLUMBIA,901 WESTLAKE DRIVE,COLUMBIA,KY,42728,GENERAL ACUTE CARE,OPEN,77,ADAIR,USA,37.09664157,-85.29454565,NON-PROFIT,74
13050144,DECATUR COUNTY HOSPITAL,1405 NORTHWEST CHURCH STREET,LEON,IA,50144,GENERAL ACUTE CARE,OPEN,25,DECATUR,USA,40.75093467,-93.74694077,GOVERNMENT - LOCAL,25
4466032,ANDERSON COUNTY HOSPITAL,421 SOUTH MAPLE STREET,GARNETT,KS,66032,CRITICAL ACCESS,OPEN,41,ANDERSON,USA,38.279877,-95.25033865,NON-PROFIT,41
7567860,KEARNY COUNTY HOSPITAL,500 THORPE STREET,LAKIN,KS,67860,CRITICAL ACCESS,OPEN,25,KEARNY,USA,37.94659327,-101.2519299,GOVERNMENT - LOCAL,25
7767467,OTTAWA COUNTY HEALTH CENTER,215 E 8TH STREET,MINNEAPOLIS,KS,67467,CRITICAL ACCESS,OPEN,42,OTTAWA,USA,39.12933196,-97.70394425,NON-PROFIT,42
3502492,BETH ISRAEL DEACONESS HOSPITAL - NEEDHAM,148 CHESTNUT STREET,NEEDHAM,MA,2492,GENERAL ACUTE CARE,OPEN,58,NORFOLK,USA,42.2771,-71.2369,NON-PROFIT,58
12402745,VIBRA HOSPITAL OF SOUTHWESTERN MASSACHUSETTS,4499 ACUSHNET AVENUE,NEW BEDFORD,MA,2745,REHABILITATION,OPEN,90,BRISTOL,USA,41.74072523,-70.94575361,PROPRIETARY,90
4002062,NORWOOD HOSPITAL,800 WASHINGTON ROAD,NORWOOD,MA,2062,GENERAL ACUTE CARE,OPEN,215,NORFOLK,USA,42.189,-71.2021,PROPRIETARY,215
12602537,SPAULDING REHABILITATION HOSPITAL CAPE COD,311 SERVICE ROAD,SANDWICH,MA,2537,REHABILITATION,OPEN,60,BARNSTABLE,USA,41.7329845,-70.46810284,NON-PROFIT,60
6702143,CAMBRIDGE HEALTH ALLIANCE - SOMERVILLE CAMPUS,230 HIGHLAND AVENUE,SOMERVILLE,MA,2143,GENERAL ACUTE CARE,OPEN,124,MIDDLESEX,USA,42.39,-71.1094,GOVERNMENT - DISTRICT/AUTHORITY,124
12701104,SHRINERS' HOSPITAL FOR CHILDREN,516 CAREW ST,SPRINGFIELD,MA,1104,CHILDREN,OPEN,40,HAMPDEN,USA,42.12131503,-72.59237295,NON-PROFIT,40
372903,MERCY HOSPITAL FORT SMITH,7301 ROGERS AVENUE,FORT SMITH,AR,72903,GENERAL ACUTE CARE,OPEN,336,SEBASTIAN,USA,35.35586599,-94.35205497,NON-PROFIT,336
7472901,HEALTHSOUTH REHABILITATION HOSPITAL OF FORT SMITH,1401 SOUTH J STREET,FORT SMITH,AR,72901,REHABILITATION,OPEN,80,SEBASTIAN,USA,35.37394031,-94.41875448,PROPRIETARY,80
9700000,WHITE COUNTY MEDICAL CENTER - SOUTH CAMPUS,1200 SOUTH MAIN STREET,SEARCY,AR,72143,GENERAL ACUTE CARE,OPEN,193,WHITE,USA,35.23409441,-91.73107431,NON-PROFIT,193
10172143,WHITE COUNTY MEDICAL CENTER - NORTH CAMPUS,3214 EAST RACE AVENUE,SEARCY,AR,72143,GENERAL ACUTE CARE,OPEN,286,WHITE,USA,35.25188604,-91.69700113,NON-PROFIT,286
10272834,RIVER VALLEY MEDICAL CENTER,200 NORTH THIRD STREET,DARDANELLE,AR,72834,CRITICAL ACCESS,OPEN,35,YELL,USA,35.22047614,-93.15729817,PROPRIETARY,35
2271923,BAPTIST HEALTH MEDICAL CENTER - ARKADELPHIA,3050 TWIN RIVERS DRIVE,ARKADELPHIA,AR,71923,CRITICAL ACCESS,OPEN,25,CLARK,USA,34.12291357,-93.08882416,NON-PROFIT,25
872616,MERCY HOSPITAL BERRYVILLE,214 CARTER STREET,BERRYVILLE,AR,72616,CRITICAL ACCESS,OPEN,25,CARROLL,USA,36.3590621,-93.55182577,NON-PROFIT,25
1072632,EUREKA SPRINGS HOSPITAL,24 NORRIS STREET,EUREKA SPRINGS,AR,72632,CRITICAL ACCESS,OPEN,22,CARROLL,USA,36.40016379,-93.74423592,PROPRIETARY,22
2871653,SOUTHEAST REHABILITATION HOSPITAL,2729A HWY 65 & 82 S,LAKE VILLAGE,AR,71653,REHABILITATION,OPEN,15,CHICOT,USA,33.30629397,-91.28958992,PROPRIETARY,15
671671,BRADLEY COUNTY MEDICAL CENTER,404 SOUTH BRADLEY STREET,WARREN,AR,71671,CRITICAL ACCESS,OPEN,35,BRADLEY,USA,33.61036413,-92.05925489,NON-PROFIT,35
8872455,FIVE RIVER MEDICAL CENTER,2801 MEDICAL CENTER DRIVE,POCAHONTAS,AR,72455,GENERAL ACUTE CARE,OPEN,50,RANDOLPH,USA,36.28976027,-90.99738763,NON-PROFIT,50
2571742,DALLAS COUNTY MEDICAL CENTER,201 NORTH CLIFTON STREET,FORDYCE,AR,71742,CRITICAL ACCESS,OPEN,25,DALLAS,USA,33.81085539,-92.42558764,GOVERNMENT - LOCAL,25
4100000,CRITTENDEN HOSPITAL ASSOCIATION,200 WEST TYLER AVENUE,WEST MEMPHIS,AR,72301,GENERAL ACUTE CARE,CLOSED,152,CRITTENDEN,USA,35.14311024,-90.18909851,NON-PROFIT,152
6171701,OUACHITA CO. MEDICAL CENTER,638 CALIFORNIA AVENUE,CAMDEN,AR,71701,GENERAL ACUTE CARE,OPEN,100,OUACHITA,USA,33.57582113,-92.83673933,NON-PROFIT,100
572601,NORTH ARKANSAS REGIONAL MEDICAL CENTER,620 NORTH WILLOW,HARRISON,AR,72601,GENERAL ACUTE CARE,OPEN,174,BOONE,USA,36.23653136,-93.10913937,NON-PROFIT,174
1672560,STONE COUNTY MEDICAL CENTER,"2106 EAST MAIN STREET, HIGHWAY 14 EAST",MOUNTAIN VIEW,AR,72560,CRITICAL ACCESS,OPEN,25,STONE,USA,35.85658313,-92.08286453,NON-PROFIT,25
2372454,PIGGOTT COMMUNITY HOSPITAL,1206 GORDON DUCKWORTH DRIVE,PIGGOTT,AR,72454,CRITICAL ACCESS,OPEN,25,CLAY,USA,36.39011947,-90.20483796,GOVERNMENT - LOCAL,25
1372543,BAPTIST HEALTH - HEBER SPRINGS,1800 BYPASS ROAD,HEBER SPRINGS,AR,72543,CRITICAL ACCESS,OPEN,25,CLEBURNE,USA,35.48856958,-92.05798114,NON-PROFIT,25
2472110,ST. VINCENT MORRILTON,4 HOSPITAL DRIVE,MORRILTON,AR,72110,CRITICAL ACCESS,OPEN,35,CONWAY,USA,35.16801491,-92.72135132,NON-PROFIT,35
3072205,UAMS MEDICAL CENTER,4301 WEST MARKHAM STREET,LITTLE ROCK,AR,72205,GENERAL ACUTE CARE,OPEN,400,PULASKI,USA,34.74902515,-92.32013731,GOVERNMENT - STATE,400
5000000,BAPTIST HEALTH MEDICAL CENTER - NORTH LITTLE ROCK,3333 SPRINGHILL DRIVE,LITTLE ROCK,AR,72117,GENERAL ACUTE CARE,OPEN,248,PULASKI,USA,34.78365489,-92.22340916,NON-PROFIT,248
6972113,UNITED METHODIST BEHAVIORAL HEALTH SYSTEMS,1601 MURPHY DRIVE,MAUMELLE,AR,72113,PSYCHIATRIC,OPEN,60,PULASKI,USA,34.87643567,-92.39441325,NON-PROFIT,60
1971901,LEO N. LEVI NATIONAL ARTHRITIS HOSPITAL,300 PROSPECT AVENUE,HOT SPRINGS,AR,71901,GENERAL ACUTE CARE,OPEN,89,GARLAND,USA,34.50989707,-93.05757749,NON-PROFIT,89
4671901,HOT SPRINGS REHABILITATION CENTER,105 RESERVE STREET,HOT SPRINGS,AR,71901,REHABILITATION,CLOSED,35,GARLAND,USA,34.51212501,-93.05260787,GOVERNMENT - STATE,35
5971913,CHI ST VINCENT HOSPITAL HOT SPRINGS,300 WERNER STREET,HOT SPRINGS,AR,71913,GENERAL ACUTE CARE,OPEN,289,GARLAND,USA,34.46802567,-93.06627041,NON-PROFIT,289
6600000,BAPTIST HEALTH MEDICAL CENTER - HOT SPRING COUNTY,1001 SCHNEIDER DRIVE,MALVERN,AR,72104,GENERAL ACUTE CARE,OPEN,72,HOT SPRING,USA,34.35877404,-92.7858884,PROPRIETARY,72
3971603,ARKANSAS DEPT. OF CORRECTION-DIAGNOSTIC UNIT,7500 CORRECTIONS CIRCLE,PINE BLUFF,AR,71603,GENERAL ACUTE CARE,OPEN,27,JEFFERSON,USA,34.22219143,-92.08268605,GOVERNMENT - STATE,27
6871603,JEFFERSON REGIONAL MEDICAL CENTER,1600 WEST 40TH AVENUE,PINE BLUFF,AR,71603,GENERAL ACUTE CARE,OPEN,471,JEFFERSON,USA,34.18773469,-92.0176802,NON-PROFIT,471
2772703,HEALTHSOUTH REHABILITATION HOSPITAL,153 EAST MONTE PAINTER DRIVE,FAYETTEVILLE,AR,72703,REHABILITATION,OPEN,60,WASHINGTON,USA,36.10909938,-94.15484504,PROPRIETARY,60
331404,"MEMORIAL HEALTH UNIV MED CEN, INC",4700 WATERS AVENUE,SAVANNAH,GA,31404,GENERAL ACUTE CARE,OPEN,530,CHATHAM,USA,32.03053088,-81.08886242,NON-PROFIT,512
9372703,VANTAGE POINT OF NORTHWEST ARKANSAS,4253 CROSSOVER ROAD,FAYETTEVILLE,AR,72703,PSYCHIATRIC,OPEN,114,WASHINGTON,USA,36.12789076,-94.11985143,PROPRIETARY,114
9672762,NORTHWEST MEDICAL CENTER - WILLOW CREEK WOMEN'S HOSPITAL,4301 GREATHOUSE SPRINGS ROAD,SPRINGDALE,AR,72762,WOMEN,OPEN,64,WASHINGTON,USA,36.13551027,-94.18621922,PROPRIETARY,64
9454915,ASCENSION NE WISCONSIN ST. ELIZABETH HOSPITAL,1506 S ONEIDA ST,APPLETON,WI,54915,GENERAL ACUTE CARE,OPEN,332,OUTAGAMIE,USA,44.24825124,-88.40250968,NON-PROFIT,332
3271953,MENA REGIONAL HEALTH SYSTEM,311 NORTH MORROW STREET,MENA,AR,71953,GENERAL ACUTE CARE,OPEN,65,POLK,USA,34.5890536,-94.22163124,GOVERNMENT - LOCAL,65
4972927,MERCY HOSPITAL BOONEVILLE,880 WEST MAIN STREET,BOONEVILLE,AR,72927,CRITICAL ACCESS,OPEN,25,LOGAN,USA,35.14032192,-93.93517063,NON-PROFIT,25
5172855,MERCY HOSPITAL PARIS,500 EAST ACADEMY,PARIS,AR,72855,CRITICAL ACCESS,OPEN,16,LOGAN,USA,35.28929334,-93.72487855,NON-PROFIT,16
62572396,CROSSRIDGE COMMUNITY HOSPITAL,310 SOUTH FALLS BOULEVARD,WYNNE,AR,72396,GENERAL ACUTE CARE,OPEN,25,CROSS,USA,35.21955792,-90.78664054,NOT AVAILABLE,25
64072205,BAPTIST HEALTH REHABILITATION INSTITUTE,9601 BAPTIST HEALTH DRIVE,LITTLE ROCK,AR,72205,REHABILITATION,OPEN,120,PULASKI,USA,34.74429608,-92.38181609,NON-PROFIT,120
8053211,ASCENSION SACRED HEART REHAB INST,2301 NORTH LAKE DRIVE,MILWAUKEE,WI,53211,REHABILITATION,OPEN,31,MILWAUKEE,USA,43.06145544,-87.88038438,NON-PROFIT,31
14385622,SANTA CRUZ VALLEY HOSPITAL,4455 SOUTH I-19 FRONTAGE RD,GREEN VALLEY,AZ,85622,GENERAL ACUTE CARE,OPEN,49,PIMA,USA,31.80657111,-111.0100185,NOT AVAILABLE,49
62472160,BAPTIST HEALTH MEDICAL CENTER-STUTTGART,1703 NORTH BUERKLE ROAD,STUTTGART,AR,72160,GENERAL ACUTE CARE,OPEN,-999,ARKANSAS,USA,34.5175108,-91.55829954,NON-PROFIT,49
1042539,CASEY COUNTY HOSPITAL,187 WOLFORD AVENUE,LIBERTY,KY,42539,CRITICAL ACCESS,OPEN,15,CASEY,USA,37.31771681,-84.93317191,GOVERNMENT - LOCAL,24
5240336,MARCUM AND WALLACE MEMORIAL HOSPITAL,60 MERCY COURT,IRVINE,KY,40336,CRITICAL ACCESS,OPEN,25,ESTILL,USA,37.7061971,-83.97727714,NON-PROFIT,25
3641653,HIGHLANDS REGIONAL MEDICAL CENTER,5000 KENTUCKY ROUTE 321,PRESTONSBURG,KY,41653,GENERAL ACUTE CARE,OPEN,174,FLOYD,USA,37.72901006,-82.76732008,NON-PROFIT,174
7140207,NORTON WOMEN'S AND KOSAIR CHILDREN'S HOSPITAL,4001 DUTCHMANS LANE,LOUISVILLE,KY,40207,WOMEN,OPEN,373,JEFFERSON,USA,38.23533009,-85.63293693,NON-PROFIT,373
9440215,SAINTS MARY & ELIZABETH HOSPITAL,1850 BLUEGRASS AVENUE,LOUISVILLE,KY,40215,GENERAL ACUTE CARE,OPEN,298,JEFFERSON,USA,38.17826438,-85.79391641,NON-PROFIT,298
10640207,THE BROOK - DUPONT,1405 BROWNS LANE,LOUISVILLE,KY,40207,PSYCHIATRIC,OPEN,88,JEFFERSON,USA,38.23569663,-85.62734095,PROPRIETARY,88
240031,BAPTIST HEALTH LA GRANGE,1025 NEW MOODY LANE,LAGRANGE,KY,40031,GENERAL ACUTE CARE,OPEN,90,OLDHAM,USA,38.39489019,-85.37606515,NON-PROFIT,90
9401605,ADCARE HOSPITAL OF WORCESTER INC,107 LINCOLN STREET,WORCESTER,MA,1605,REHABILITATION,OPEN,114,WORCESTER,USA,42.27641208,-71.79491979,PROPRIETARY,114
8401730,EDITH NOURSE ROGERS MEMORIAL VETERANS HOSPITAL,200 SPRINGS ROAD,BEDFORD,MA,1730,MILITARY,OPEN,147,MIDDLESEX,USA,42.5047,-71.2744,GOVERNMENT - FEDERAL,147
9501913,AMESBURY HEALTH CENTER,24 MORRILL PLACE,AMESBURY,MA,1913,GENERAL ACUTE CARE,OPEN,12,ESSEX,USA,42.8484144,-70.93338025,NON-PROFIT,12
1202215,BETH ISRAEL DEACONESS MEDICAL CENTER - WEST CAMPUS,ONE DEACONESS RD,BOSTON,MA,2215,GENERAL ACUTE CARE,OPEN,405,SUFFOLK,USA,42.3379,-71.1092,NON-PROFIT,405
9602130,"ARBOUR HOSPITAL, THE",49 ROBINWOOD AVENUE,BOSTON,MA,2130,PSYCHIATRIC,OPEN,136,SUFFOLK,USA,42.31581841,-71.11227314,PROPRIETARY,136
8201930,BEVERLY HOSPITAL ADDISON GILBERT CAMPUS,298 WASHINGTON STREET,GLOUCESTER,MA,1930,GENERAL ACUTE CARE,OPEN,79,ESSEX,USA,42.6255,-70.6806,NON-PROFIT,79
11801542,VIBRA HOSPITAL OF WESTERN MASS CENTRAL CAMPUS,111 HUNTOON MEMORIAL HIGHWAY,LEICESTER,MA,1542,LONG TERM CARE,OPEN,47,WORCESTER,USA,42.20189928,-71.89882734,PROPRIETARY,47
13925027,WORCESTER RECOVERY CENTER AND HOSPITAL,309 BELMONT STREET,WORCESTER,MA,1604,PSYCHIATRIC,OPEN,166,WORCESTER,USA,42.27966719,-71.76906694,GOVERNMENT - STATE,166
4204730,HOULTON REGIONAL HOSPITAL,20 HARTFORD STREET,HOULTON,ME,4730,CRITICAL ACCESS,OPEN,25,AROOSTOOK,USA,46.13384624,-67.84362347,NON-PROFIT,25
2804901,NORTHERN LIGHT INLAND HOSPITAL,200 KENNEDY MEMORIAL DRIVE,WATERVILLE,ME,4901,GENERAL ACUTE CARE,OPEN,46,KENNEBEC,USA,44.54182648,-69.66149107,NON-PROFIT,48
3004330,MAINEGENERAL MEDICAL CENTER,6 EAST CHESTNUT STREET,AUGUSTA,ME,4330,GENERAL ACUTE CARE,CLOSED,146,KENNEBEC,USA,44.31311976,-69.76843437,NON-PROFIT,146
2704901,MAINEGENERAL MEDICAL CENTER-SETON,30 CHASE AVENUE,WATERVILLE,ME,4901,GENERAL ACUTE CARE,CLOSED,75,KENNEBEC,USA,44.54919273,-69.65867356,NON-PROFIT,75
2504538,SAINT ANDREWS HOSPITAL AND HEALTHCARE CENTER,6 SAINT ANDREWS LANE,BOOTHBAY HARBOR,ME,4538,GENERAL ACUTE CARE,CLOSED,52,LINCOLN,USA,43.85034393,-69.6387693,NON-PROFIT,52
4648624,MIDMICHIGAN MEDICAL CENTER-GLADWIN,515 QUARTER STREET,GLADWIN,MI,48624,CRITICAL ACCESS,OPEN,25,GLADWIN,USA,43.97594367,-84.49388756,NON-PROFIT,25
7349868,HELEN NEWBERRY JOY HOSPITAL,502 W HARRIE ST,NEWBERRY,MI,49868,CRITICAL ACCESS,OPEN,25,LUCE,USA,46.35318009,-85.51565374,GOVERNMENT - LOCAL,25
1549862,MUNISING MEMORIAL HOSPITAL,1500 SAND POINT RD,MUNISING,MI,49862,CRITICAL ACCESS,OPEN,11,ALGER,USA,46.42527107,-86.6251853,NON-PROFIT,11
10902167,BOURNEWOOD HOSPITAL,300 SOUTH STREET,BROOKLINE,MA,2167,PSYCHIATRIC,OPEN,-999,NORFOLK,USA,42.29831857,-71.14928568,PROPRIETARY,90
5848843,SAINT JOSEPH MERCY LIVINGSTON HOSPITAL,620 BYRON RD,HOWELL,MI,48843,GENERAL ACUTE CARE,OPEN,136,LIVINGSTON,USA,42.61558756,-83.9409904,NON-PROFIT,136
1649242,HILLSDALE COMMUNITY HEALTH CENTER,168 S HOWELL STREET,HILLSDALE,MI,49242,GENERAL ACUTE CARE,OPEN,65,HILLSDALE,USA,41.91173869,-84.63300353,NON-PROFIT,65
10048071,DMC SURGERY HOSPITAL,30671 STEPHENSON HIGHWAY,MADISON HEIGHTS,MI,48071,GENERAL ACUTE CARE,OPEN,36,OAKLAND,USA,42.51788754,-83.12010727,NON-PROFIT,36
3049098,"LAKELAND COMMUNITY HOSPITAL, WATERVLIET",400 MEDICAL PARK DR,WATERVLIET,MI,49098,GENERAL ACUTE CARE,OPEN,38,BERRIEN,USA,42.18488046,-86.24992583,NON-PROFIT,38
5648858,MCLAREN CENTRAL MICHIGAN,1221 SOUTH DRIVE,MOUNT PLEASANT,MI,48858,GENERAL ACUTE CARE,OPEN,118,ISABELLA,USA,43.59912248,-84.76141286,NON-PROFIT,118
7949431,SPECTRUM HEALTH LUDINGTON HOSPITAL,1 N ATKINSON DRIVE,LUDINGTON,MI,49431,GENERAL ACUTE CARE,OPEN,49,MASON,USA,43.95814794,-86.43040938,NON-PROFIT,49
14049079,BRONSON LAKEVIEW HOSPITAL,408 HAZEN STREET,PAW PAW,MI,49079,GENERAL ACUTE CARE,OPEN,35,VAN BUREN,USA,42.22129436,-85.89707006,NON-PROFIT,35
13248427,DECKERVILLE COMMUNITY HOSPITAL,3559 PINE ST,DECKERVILLE,MI,48427,GENERAL ACUTE CARE,OPEN,15,SANILAC,USA,43.52811921,-82.73424915,NON-PROFIT,15
14948202,HENRY FORD HOSPITAL,2799 W GRAND BLVD,DETROIT,MI,48202,GENERAL ACUTE CARE,OPEN,877,WAYNE,USA,42.36768678,-83.08472312,NON-PROFIT,877
4256007,MAYO CLINIC HEALTH SYS ALBT LE,404 WEST FOUNTAIN STREET,ALBERT LEA,MN,56007,GENERAL ACUTE CARE,OPEN,159,FREEBORN,USA,43.6523607,-93.3727523,NON-PROFIT,159
14155009,MAYO CLINIC HEALTH SYS CF,32021 COUNTY 24 BOULEVARD,CANNON FALLS,MN,55009,CRITICAL ACCESS,OPEN,15,GOODHUE,USA,44.48616464,-92.9032023,NON-PROFIT,15
5056031,MAYO CLINIC HEALTH SYS FAIRMNT,"800 MEDICAL CTR DRIVE, PO 800",FAIRMONT,MN,56031,GENERAL ACUTE CARE,OPEN,57,MARTIN,USA,43.63880146,-94.450437,NON-PROFIT,57
10856087,MAYO CLINIC HEALTH SYSTEM S F,625 JACKSON ST N,SPRINGFIELD,MN,56087,CRITICAL ACCESS,OPEN,24,BROWN,USA,44.24661914,-94.97108361,NON-PROFIT,24
8665201,HARRY S. TRUMAN MEMORIAL VETERANS HOSPITAL,800 HOSPITAL DR,COLUMBIA,MO,65201,GENERAL ACUTE CARE,OPEN,126,BOONE,USA,38.93666726,-92.32905785,GOVERNMENT - FEDERAL,126
5158554,VIBRA HOSPITAL OF CENTRAL DAKOTAS,1000 18TH ST NW,MANDAN,ND,58554,LONG TERM CARE,OPEN,41,MORTON,USA,46.8418693,-100.9076977,PROPRIETARY,41
2458533,JACOBSON MEMORIAL HOSPITAL & CARE CENTER,601 EAST ST N,ELGIN,ND,58533,CRITICAL ACCESS,OPEN,30,GRANT,USA,46.40732581,-101.8414635,NON-PROFIT,30
1446011,COMMUNITY HOSPITAL OF ANDERSON AND MADISON COUNTY,1515 N MADISON AVE,ANDERSON,IN,46011,GENERAL ACUTE CARE,OPEN,137,MADISON,USA,40.13064559,-85.69320918,NON-PROFIT,137
9446601,MEMORIAL HOSPITAL OF SOUTH BEND,615 N MICHIGAN ST,SOUTH BEND,IN,46601,GENERAL ACUTE CARE,OPEN,416,ST. JOSEPH,USA,41.68405529,-86.25157885,NON-PROFIT,416
389128,COMPLEX CARE HOSPITAL AT TENAYA,2500 NORTH TENAYA,LAS VEGAS,NV,89128,LONG TERM CARE,OPEN,70,CLARK,USA,36.20553077,-115.2503564,PROPRIETARY,70
489119,DESERT SPRINGS HOSPITAL MEDICAL CENTER,2075 EAST FLAMINGO ROAD,LAS VEGAS,NV,89119,GENERAL ACUTE CARE,OPEN,346,CLARK,USA,36.11395958,-115.1245052,PROPRIETARY,293
12119124,EASTERN REGIONAL MEDICAL CENTER,1331 EAST WYOMING AVENUE,PHILADELPHIA,PA,19124,GENERAL ACUTE CARE,OPEN,58,PHILADELPHIA,USA,40.01881298,-75.09946405,PROPRIETARY,58
13619107,THOMAS JEFFERSON UNIVERSITY HOSPITAL,111 SOUTH 11TH STREET,PHILADELPHIA,PA,19107,GENERAL ACUTE CARE,OPEN,957,PHILADELPHIA,USA,39.94970838,-75.15794605,NON-PROFIT,957
20819104,PENN PRESBYTERIAN MEDICAL CENTER,51 NORTH 39TH STREET,PHILADELPHIA,PA,19104,GENERAL ACUTE CARE,OPEN,305,PHILADELPHIA,USA,39.95887248,-75.19926368,NON-PROFIT,305
21419130,ST JOSEPHS HOSPITAL,16TH STREET & GIRARD AVENUE,PHILADELPHIA,PA,19130,GENERAL ACUTE CARE,CLOSED,227,PHILADELPHIA,USA,39.97148609,-75.16319015,NON-PROFIT,227
25019104,VA MEDICAL CENTER - PHILADELPHIA,UNIVERSITY & WOODLAND AVENUES,PHILADELPHIA,PA,19104,MILITARY,OPEN,280,PHILADELPHIA,USA,39.94788477,-75.20007509,GOVERNMENT - FEDERAL,280
6017822,GEISINGER MEDICAL CENTER,100 NORTH ACADEMY AVENUE,DANVILLE,PA,17822,GENERAL ACUTE CARE,OPEN,404,MONTOUR,USA,40.96814496,-76.60525611,NON-PROFIT,404
182330115,NORTHSIDE HOSPITAL - CHEROKEE,450 NORTHSIDE CHEROKEE BOULEVARD,CANTON,GA,30115,GENERAL ACUTE CARE,OPEN,-999,CHEROKEE,USA,34.229238,-84.466259,NON-PROFIT,158
185631620,"SOUTHWELL MEDICAL, A CAMPUS OF TRMC",260 MJ TAYLOR ROAD,ADEL,GA,31620,GENERAL ACUTE CARE,OPEN,-999,COOK,USA,31.10819893,-83.42737285,NOT AVAILABLE,60
5759501,NORTHERN MONTANA HOSPITAL,30 13TH ST,HAVRE,MT,59501,GENERAL ACUTE CARE,OPEN,49,HILL,USA,48.53807731,-109.6858178,NON-PROFIT,49
6929425,MUSC MEDICAL CENTER,169 ASHLEY AVE,CHARLESTON,SC,29425,GENERAL ACUTE CARE,OPEN,713,CHARLESTON,USA,32.78588204,-79.94792136,GOVERNMENT - DISTRICT/AUTHORITY,713
189830346,VERITAS COLLABORATIVE GEORGIA,41 PERIMETER CENTER EAST,ATLANTA,GA,30346,PSYCHIATRIC,OPEN,-999,DEKALB,USA,33.9242473,-84.33106507,NOT AVAILABLE,50
522835,PAGE MEMORIAL HOSPITAL,200 MEMORIAL DRIVE,LURAY,VA,22835,CRITICAL ACCESS,OPEN,25,PAGE,USA,38.66325,-78.468518,NON-PROFIT,25
14244266,UH PORTAGE - ROBINSON MEMORIAL HOSPITAL,6847 N CHESTNUT,RAVENNA,OH,44266,GENERAL ACUTE CARE,OPEN,302,PORTAGE,USA,41.17605775,-81.2490173,NON-PROFIT,302
6878746,DELL CHILDREN'S MEDICAL CENTER,4900 MUELLER BOULEVARD,AUSTIN,TX,78746,CHILDREN,OPEN,248,TRAVIS,USA,30.30311083,-97.70702246,NON-PROFIT,248
19676104,COOK CHILDREN'S MEDICAL CENTER,801 SEVENTH AVENUE,FORT WORTH,TX,76104,CHILDREN,OPEN,430,TARRANT,USA,32.73707173,-97.34140504,NON-PROFIT,430
898356,ARBOR HEALTH MORTON GENERAL HOSPITAL,521 ADAMS ST,MORTON,WA,98356,CRITICAL ACCESS,OPEN,25,LEWIS,USA,46.55567481,-122.2803544,GOVERNMENT - DISTRICT/AUTHORITY,25
194246032,"INDIANA SPINE HOSPITAL, LLC",13219 N MERIDIAN STREET,CARMEL,IN,46032,SPECIAL,OPEN,-999,HAMILTON,USA,39.98041995,-86.15347262,NOT AVAILABLE,20
13753045,ASCENSION SE WISCONSIN HOSPITAL - ELMBROOK CAMPUS,19333 W NORTH AVE,BROOKFIELD,WI,53045,GENERAL ACUTE CARE,OPEN,175,WAUKESHA,USA,43.0593759,-88.15451943,NON-PROFIT,175
6753132,ASCENSION SE WISCONSIN HOSPITAL - FRANKLIN CAMPUS,10101 SOUTH 27TH STREET,FRANKLIN,WI,53132,GENERAL ACUTE CARE,OPEN,52,MILWAUKEE,USA,42.86001258,-87.9540681,NON-PROFIT,52
8153210,ASCENSION SE WISCONSIN HOSPITAL ST JOSEPH,5000 W CHAMBERS ST,MILWAUKEE,WI,53210,GENERAL ACUTE CARE,OPEN,538,MILWAUKEE,USA,43.07412025,-87.9760734,NON-PROFIT,538
6354476,ASCENSION ST CLARES HOSPITAL,3400 MINISTRY PARKWAY,WESTON,WI,54476,GENERAL ACUTE CARE,OPEN,99,MARATHON,USA,44.89018231,-89.58014599,NON-PROFIT,99
7853215,ASCENSION ST FRANCIS HOSPITAL,3237 S 16TH ST,MILWAUKEE,WI,53215,GENERAL ACUTE CARE,OPEN,260,MILWAUKEE,USA,42.98565775,-87.93465729,NON-PROFIT,260
9254501,ASCENSION ST MARYS HOSPITAL,2251 NORTH SHORE DR,RHINELANDER,WI,54501,GENERAL ACUTE CARE,OPEN,73,ONEIDA,USA,45.63947041,-89.37482659,NON-PROFIT,73
17545409,MIAMI VALLEY HOSPITAL,ONE WYOMING STREET,DAYTON,OH,45409,GENERAL ACUTE CARE,OPEN,883,MONTGOMERY,USA,39.7448932,-84.18590861,NON-PROFIT,883
10354481,ASCENSION ST MICHAELS HOSPITAL,900 ILLINOIS AVE,STEVENS POINT,WI,54481,GENERAL ACUTE CARE,OPEN,94,PORTAGE,USA,44.52643184,-89.56709621,NON-PROFIT,94
15454495,ASPIRUS RIVERVIEW HSPTL ASSOC,410 DEWEY STREET,WISCONSIN RAPIDS,WI,54495,GENERAL ACUTE CARE,OPEN,99,WOOD,USA,44.38175803,-89.82988944,NON-PROFIT,99
5754401,ASPIRUS WAUSAU HOSPITAL,333 PINE RIDGE BLVD,WAUSAU,WI,54401,GENERAL ACUTE CARE,OPEN,325,MARATHON,USA,44.96584185,-89.66789021,NON-PROFIT,325
13253121,AURORA LAKELAND MED CTR,W3985 CTY RD NN,ELKHORN,WI,53121,GENERAL ACUTE CARE,OPEN,109,WALWORTH,USA,42.66189503,-88.49619199,NON-PROFIT,109
13653027,AURORA MED CENTER-WASHINGTON COUNTY,1032 E SUMNER ST,HARTFORD,WI,53027,GENERAL ACUTE CARE,OPEN,71,WASHINGTON,USA,43.31840584,-88.36246156,NON-PROFIT,71
5153142,AURORA MED CTR KENOSHA,10400 75TH ST,KENOSHA,WI,53142,GENERAL ACUTE CARE,OPEN,74,KENOSHA,USA,42.56939682,-87.93546502,NON-PROFIT,74
6154241,AURORA MED CTR MANITOWOC CTY,5000 MEMORIAL DR,TWO RIVERS,WI,54241,GENERAL ACUTE CARE,OPEN,69,MANITOWOC,USA,44.12536783,-87.61945613,NON-PROFIT,69
188346176,MHP MEDICAL CENTER,2451 INTELLIPLEX DRIVE,SHELBYVILLE,IN,46176,GENERAL ACUTE CARE,OPEN,-999,SHELBY,USA,39.560356,-85.785817,GOVERNMENT - LOCAL,40
35579408,COVENANT CHILDREN'S HOSPITAL,4015 22ND PLACE,LUBBOCK,TX,79410,CHILDREN,OPEN,73,LUBBOCK,USA,33.57340325,-101.900592,NON-PROFIT,73
183446992,PARKVIEW WABASH HOSPITAL,10 JOHN KISSINGER DRIVE,WABASH,IN,46992,GENERAL ACUTE CARE,OPEN,-999,WABASH,USA,40.820937,-85.823901,NON-PROFIT,18
187746307,NEURO BEHAVIORAL HOSPITAL,9330 BROADWAY,CROWN POINT,IN,46307,PSYCHIATRIC,OPEN,-999,LAKE,USA,41.44880307,-87.33726012,NOT AVAILABLE,70
194147586,PERRY COUNTY MEMORIAL HOSPITAL,8885 SR 237,TELL CITY,IN,47586,GENERAL ACUTE CARE,OPEN,-999,PERRY,USA,37.967931,-86.731667,GOVERNMENT - LOCAL,25
14044481,ST JOSEPH HEALTH CENTER,667 EASTLAND AVE SE,WARREN,OH,44481,GENERAL ACUTE CARE,OPEN,219,TRUMBULL,USA,41.23091175,-80.77715528,NON-PROFIT,219
2944482,TRUMBULL MEMORIAL HOSPITAL,1350 EAST MARKET STREET,WARREN,OH,44482,GENERAL ACUTE CARE,OPEN,346,TRUMBULL,USA,41.23585592,-80.79877826,PROPRIETARY,346
3397031,PROVIDENCE HOOD RIVER MEMORIAL HOSPITAL,810 12TH STREET,HOOD RIVER,OR,97031,CRITICAL ACCESS,OPEN,25,HOOD RIVER,USA,45.70483197,-121.5239086,NON-PROFIT,25
9360901,RIVERSIDE MEDICAL CENTER,350 N WALL ST,KANKAKEE,IL,60901,GENERAL ACUTE CARE,OPEN,325,KANKAKEE,USA,41.12508686,-87.88189889,NON-PROFIT,325
497845,BLUE MOUNTAIN HOSPITAL,170 FORD ROAD,JOHN DAY,OR,97845,CRITICAL ACCESS,OPEN,25,GRANT,USA,44.41711272,-118.9596915,NON-PROFIT,25
2912601,VASSAR BROTHERS MEDICAL CENTER,45 READE PL,POUGHKEEPSIE,NY,12601,GENERAL ACUTE CARE,OPEN,365,DUTCHESS,USA,41.69385894,-73.93578611,NON-PROFIT,365
3214215,ERIE COUNTY MEDICAL CENTER,462 GRIDER ST,BUFFALO,NY,14215,GENERAL ACUTE CARE,OPEN,550,ERIE,USA,42.9250771,-78.83114577,GOVERNMENT - DISTRICT/AUTHORITY,550
5514607,STRONG MEMORIAL HOSPITAL,601 ELMWOOD AVE,ROCHESTER,NY,14607,GENERAL ACUTE CARE,OPEN,830,MONROE,USA,43.12280887,-77.62425943,NON-PROFIT,830
6411030,NORTH SHORE UNIVERSITY HOSPITAL,300 COMMUNITY DR,MANHASSET,NY,11030,GENERAL ACUTE CARE,OPEN,764,NASSAU,USA,40.77763592,-73.70161094,NON-PROFIT,764
9344221,EDWIN SHAW REHABILITATION INSTITUTE,330 BROADWAY EAST,CUYAHOGA FALLS,OH,44221,REHABILITATION,CLOSED,139,SUMMIT,USA,41.13214627,-81.47737547,NON-PROFIT,139
6511554,NASSAU UNIVERSITY MEDICAL CENTER,2201 HEMPSTEAD TPKE,EAST MEADOW,NY,11554,GENERAL ACUTE CARE,OPEN,530,NASSAU,USA,40.72625551,-73.55373802,GOVERNMENT - DISTRICT/AUTHORITY,530
7011510,SOUTH NASSAU COMMUNITIES HOSPITAL,1 HEALTHY WAY,OCEANSIDE,NY,11510,GENERAL ACUTE CARE,OPEN,455,NASSAU,USA,40.650998,-73.63083944,NON-PROFIT,455
8313210,UNIVERSITY HOSPITAL SUNY HEALTH SCIENCE CENTER,750 E ADAMS ST,SYRACUSE,NY,13210,GENERAL ACUTE CARE,OPEN,409,ONONDAGA,USA,43.04189732,-76.13983046,NON-PROFIT,409
8712550,ST. LUKE'S CORNWALL HOSPITAL - NEWBURGH CAMPUS,70 DUBOIS ST,NEWBURGH,NY,12550,GENERAL ACUTE CARE,OPEN,242,ORANGE,USA,41.50342485,-74.01456558,NON-PROFIT,242
3303038,PARKLAND MEDICAL CENTER,ONE PARKLAND DRIVE,DERRY,NH,3038,GENERAL ACUTE CARE,OPEN,86,ROCKINGHAM,USA,42.87677117,-71.31666154,PROPRIETARY,86
9310924,ORANGE REGIONAL MEDICAL CENTER,707 EAST MAIN STREET,MIDDLETOWN,NY,10924,GENERAL ACUTE CARE,OPEN,353,ORANGE,USA,41.44191408,-74.36831227,NON-PROFIT,353
9912180,SAMARITAN HOSPITAL,2215 BURDETT AVE,TROY,NY,12180,GENERAL ACUTE CARE,OPEN,212,RENSSELAER,USA,42.73329249,-73.672164,NON-PROFIT,212
10713676,CANTON-POTSDAM HOSPITAL,50 LEROY ST,POTSDAM,NY,13676,GENERAL ACUTE CARE,OPEN,94,ST. LAWRENCE,USA,44.67651062,-74.98211632,NON-PROFIT,94
15298250,PEACEHEALTH PEACE ISLAND MEDICAL CENTER,1117 SPRING ST,FRIDAY HARBOR,WA,98250,CRITICAL ACCESS,OPEN,25,SAN JUAN,USA,48.52677897,-123.0296011,NON-PROFIT,25
10110960,MONTEFLORE NYACK HOSPITAL,160 N MIDLAND AVE,NYACK,NY,10960,GENERAL ACUTE CARE,OPEN,375,ROCKLAND,USA,41.09621147,-73.92601813,NON-PROFIT,375
10912866,SARATOGA HOSPITAL,211 CHURCH ST,SARATOGA,NY,12866,GENERAL ACUTE CARE,OPEN,171,SARATOGA,USA,43.08588022,-73.79678273,NON-PROFIT,171
1060035,NORTHSHORE UNIVERSITY HEALTHSYSTEM DBA HIGHLAND PARK HOSPITAL,777 PARK AVENUE WEST,HIGHLAND PARK,IL,60035,GENERAL ACUTE CARE,OPEN,-999,LAKE,USA,42.19110677,-87.80841495,NON-PROFIT,-999
9960048,ADVOCATE CONDELL MEDICAL CENTER,801 S MILWAUKEE AVE,LIBERTYVILLE,IL,60048,GENERAL ACUTE CARE,OPEN,279,LAKE,USA,42.274235,-87.95769974,NON-PROFIT,279
12860010,ADVOCATE GOOD SHEPHERD HOSPITAL,450 WEST HIGHWAY 22,BARRINGTON,IL,60010,GENERAL ACUTE CARE,OPEN,169,LAKE,USA,42.19538237,-88.17281887,NON-PROFIT,169
1961401,GALESBURG COTTAGE HOSPITAL,695 N KELLOGG ST,GALESBURG,IL,61401,GENERAL ACUTE CARE,OPEN,119,KNOX,USA,40.95579903,-90.36576026,NON-PROFIT,119
3361401,ST MARY MEDICAL CENTER,3333 NORTH SEMINARY,GALESBURG,IL,61401,GENERAL ACUTE CARE,OPEN,90,KNOX,USA,40.98671028,-90.36024492,NON-PROFIT,90
4960099,MIDWESTERN REGION MED CENTER,2520 ELISHA AVENUE,ZION,IL,60099,GENERAL ACUTE CARE,OPEN,73,LAKE,USA,42.44925783,-87.82783284,PROPRIETARY,73
1021205,KENNEDY KREIGER INSTITUTE,707 N BROADWAY,BALTIMORE,MD,21205,GENERAL ACUTE CARE,OPEN,70,BALTIMORE CITY,USA,39.29928098,-76.59281871,NON-PROFIT,70
2321202,MERCY MEDICAL CENTER,301 ST PAUL PLACE,BALTIMORE,MD,21202,GENERAL ACUTE CARE,OPEN,281,BALTIMORE CITY,USA,39.29292155,-76.61288423,NON-PROFIT,281
3721215,SINAI HOSPITAL OF BALTIMORE,2401 WEST BELVEDERE AVE,BALTIMORE,MD,21215,GENERAL ACUTE CARE,OPEN,467,BALTIMORE CITY,USA,39.35230251,-76.66209015,NON-PROFIT,467
4121201,UNIVERSITY OF MARYLAND MEDICAL CENTER,22 S GREENE ST,BALTIMORE,MD,21201,GENERAL ACUTE CARE,OPEN,800,BALTIMORE CITY,USA,39.28790857,-76.62492593,NON-PROFIT,800
11614843,ST. JAMES HOSPITAL,411 CANISTEO ST,HORNELL,NY,14843,GENERAL ACUTE CARE,OPEN,15,STEUBEN,USA,42.31387327,-77.6606131,NON-PROFIT,15
4821224,JOHNS HOPKINS BAYVIEW MEDICAL CENTER,4940 EASTERN AVENUE,BALTIMORE,MD,21224,GENERAL ACUTE CARE,OPEN,477,BALTIMORE CITY,USA,39.29067881,-76.54677819,NON-PROFIT,477
2603743,VALLEY REGIONAL HOSPITAL,243 ELM STREET,CLAREMONT,NH,3743,GENERAL ACUTE CARE,OPEN,25,SULLIVAN,USA,43.38458975,-72.34069671,NON-PROFIT,25
1403841,HAMPSTEAD HOSPITAL,218 EAST ROAD,HAMPSTEAD,NH,3841,PSYCHIATRIC,OPEN,111,ROCKINGHAM,USA,42.87166334,-71.15420708,PROPRIETARY,111
1303867,FRISBIE MEMORIAL HOSPITAL,11 WHITEHALL ROAD,ROCHESTER,NH,3867,GENERAL ACUTE CARE,OPEN,112,STRAFFORD,USA,43.2975566,-70.96016086,NON-PROFIT,112
1003047,CROTCHED MOUNTAIN REHABILITATION CENTER,1 VERNEY DRIVE,GREENFIELD,NH,3047,REHABILITATION,OPEN,62,HILLSBOROUGH,USA,42.9718711,-71.87453591,NON-PROFIT,62
2303060,SOUTHERN NEW HAMPSHIRE MEDICAL CENTER,8 PROSPECT STREET,NASHUA,NH,3060,GENERAL ACUTE CARE,OPEN,188,HILLSBOROUGH,USA,42.75627984,-71.4613747,NON-PROFIT,188
2403061,ST JOSEPH HOSPITAL,172 KINSLEY ST,NASHUA,NH,3061,GENERAL ACUTE CARE,OPEN,208,HILLSBOROUGH,USA,42.74923911,-71.48021205,NON-PROFIT,208
3003103,ELLIOT HOSPITAL CITY OF MANCHESTER,ONE ELLIOT WAY,MANCHESTER,NH,3103,GENERAL ACUTE CARE,OPEN,296,HILLSBOROUGH,USA,42.983954,-71.438,NON-PROFIT,296
103301,CONCORD HOSPITAL,250 PLEASANT STREET,CONCORD,NH,3301,GENERAL ACUTE CARE,OPEN,295,MERRIMACK,USA,43.19774414,-71.5620204,NON-PROFIT,295
1203235,FRANKLIN REGIONAL HOSPITAL,15 AIKEN AVE,FRANKLIN,NH,3235,GENERAL ACUTE CARE,OPEN,25,MERRIMACK,USA,43.44840426,-71.64455273,NON-PROFIT,25
11811968,UNIVERSITY HOSPITAL STONEY BROOK SOUTHAMPTON HOSPITAL,240 MEETING HOUSE LANE,SOUTHAMPTON,NY,11968,GENERAL ACUTE CARE,OPEN,125,SUFFOLK,USA,40.88505974,-72.37994406,NON-PROFIT,125
11911901,EASTERN LONG ISLAND HOSPITAL,201 MANOR PL,GREENPORT,NY,11901,GENERAL ACUTE CARE,OPEN,90,SUFFOLK,USA,41.11036057,-72.36112732,NON-PROFIT,90
12211743,HUNTINGTON HOSPITAL,270 PARK AVE,HUNTINGTON,NY,11743,GENERAL ACUTE CARE,OPEN,408,SUFFOLK,USA,40.87932924,-73.41619953,NON-PROFIT,408
12311706,SOUTHSIDE HOSPITAL,301 E MAIN ST,BAY SHORE,NY,11706,GENERAL ACUTE CARE,OPEN,321,SUFFOLK,USA,40.72596015,-73.24115864,NON-PROFIT,321
9140504,SAINT JOSEPH HOSPITAL,ONE ST JOSEPH DRIVE,LEXINGTON,KY,40504,GENERAL ACUTE CARE,OPEN,433,FAYETTE,USA,38.03233973,-84.52329929,NON-PROFIT,433
9540502,SHRINERS HOSPITAL FOR CHILDREN,1900 RICHMOND RD,LEXINGTON,KY,40502,CHILDREN,OPEN,50,FAYETTE,USA,38.02270661,-84.47269852,NON-PROFIT,50
12810901,GOOD SAMARITAN HOSPITAL - WEST ISLIP,1000 MONTAUK HIGHWAY,WEST ISLIP,NY,10901,GENERAL ACUTE CARE,OPEN,437,SUFFOLK,USA,40.69388013,-73.29439462,NON-PROFIT,437
13112401,HEALTHALLIANCE HOSPITAL - BROADWAY CAMPUS,396 BROADWAY,KINGSTON,NY,12401,GENERAL ACUTE CARE,OPEN,150,ULSTER,USA,41.92665841,-73.99484207,NON-PROFIT,150
13212428,ELLENVILLE REGIONAL HOSPITAL,10 HEALTHY WAY,ELLENVILLE,NY,12428,CRITICAL ACCESS,OPEN,25,ULSTER,USA,41.73262979,-74.37903498,NON-PROFIT,25
13614513,NEWARK-WAYNE COMMUNITY HOSPITAL,1200 DRIVING PARK AVE BOX 111,NEWARK,NY,14513,GENERAL ACUTE CARE,OPEN,120,WAYNE,USA,43.06049938,-77.10166991,NON-PROFIT,120
14110522,ST. JOHN'S RIVERSIDE HOSPITAL - DOBBS FERRY,128 ASHFORD AVE,DOBBS FERRY,NY,10522,GENERAL ACUTE CARE,OPEN,12,WESTCHESTER,USA,41.01439225,-73.86191965,NON-PROFIT,12
14510591,PHELPS MEMORIAL HOSPITAL CENTER,701 NORTH BROADWAY,SLEEPY HOLLOW,NY,10591,GENERAL ACUTE CARE,OPEN,238,WESTCHESTER,USA,41.10900706,-73.86308776,NON-PROFIT,238
11442754,TWIN LAKES REGIONAL MEDICAL CENTER,910 WALLACE AVENUE,LEITCHFIELD,KY,42754,GENERAL ACUTE CARE,OPEN,75,GRAYSON,USA,37.4725153,-86.28859309,NON-PROFIT,75
7341101,OUR LADY OF BELLEFONTE HOSPITAL,1000 ST. CHRISTOPHER DRIVE,ASHLAND,KY,41101,GENERAL ACUTE CARE,OPEN,190,GREENUP,USA,38.50845432,-82.69261651,NON-PROFIT,190
14810595,BLYTHEDALE CHILDREN'S HOSPITAL,95 BRADHURST AVE,VALHALLA,NY,10595,CHILDREN,OPEN,86,WESTCHESTER,USA,41.07484754,-73.79997224,NON-PROFIT,86
2962650,PASSAVANT AREA HOSPITAL,1600 W WALNUT ST,JACKSONVILLE,IL,62650,GENERAL ACUTE CARE,OPEN,108,MORGAN,USA,39.74608499,-90.26048664,NON-PROFIT,108
3421740,BROOK LANE HEALTH SERVICES,13218 BROOK LANE DRIVE,HAGERSTOWN,MD,21740,PSYCHIATRIC,OPEN,65,WASHINGTON,USA,39.6769953,-77.6105994,NON-PROFIT,65
2640444,GARRARD COUNTY HOSPITAL,308 WEST MAPLE AVENUE,LANCASTER,KY,40444,GENERAL ACUTE CARE,CLOSED,15,GARRARD,USA,37.62202606,-84.58515725,PROPRIETARY,15
15110532,WESTCHESTER MEDICAL CENTER,100 WOODS RD,VALHALLA,NY,10532,GENERAL ACUTE CARE,OPEN,652,WESTCHESTER,USA,41.08609075,-73.80495477,GOVERNMENT - DISTRICT/AUTHORITY,652
15310466,MONTEFIORE MEDICAL CENTER - MOSES DIVISION,111 E 210TH ST,BRONX,NY,10466,GENERAL ACUTE CARE,OPEN,779,BRONX,USA,40.88007926,-73.8798267,NON-PROFIT,779
2440601,FRANKFORT REGIONAL MEDICAL CENTER,299 KINGS DAUGHTERS DRIVE,FRANKFORT,KY,40601,LONG TERM CARE,OPEN,173,FRANKLIN,USA,38.16066175,-84.9068937,PROPRIETARY,173
15610467,NORTH CENTRAL BRONX HOSPITAL,3424 KOSSUTH AVE,BRONX,NY,10467,GENERAL ACUTE CARE,OPEN,213,BRONX,USA,40.8803656,-73.88105711,GOVERNMENT - LOCAL,213
3521742,MERITUS MEDICAL CENTER,11116 MEDICAL CAMPUS ROAD,HAGERSTOWN,MD,21742,GENERAL ACUTE CARE,OPEN,247,WASHINGTON,USA,39.62219281,-77.68256295,NON-PROFIT,247
16111212,BROOKDALE HOSPITAL MEDICAL CENTER,1 BROOKDALE PLAZA,BROOKLYN,NY,11212,GENERAL ACUTE CARE,OPEN,530,KINGS,USA,40.6552691,-73.91255653,NON-PROFIT,530
16211201,BROOKLYN HOSPITAL CENTER,121 DEKALB AVE,BROOKLYN,NY,11201,GENERAL ACUTE CARE,OPEN,464,KINGS,USA,40.69057251,-73.97788376,NON-PROFIT,464
16310461,MONTEFIORE WESTCHESTER SQUARE MEDICAL CENTER,2475 RAYMOND AVENUE,BRONX,NY,10461,GENERAL ACUTE CARE,CLOSED,-999,BRONX,USA,40.84074311,-73.84851753,NON-PROFIT,-999
16411203,KINGS COUNTY HOSPITAL CENTER,451 CLARKSON AVE,BROOKLYN,NY,11203,GENERAL ACUTE CARE,OPEN,639,KINGS,USA,40.65661638,-73.94469079,GOVERNMENT - LOCAL,639
16611235,CONEY ISLAND HOSPITAL,2601 OCEAN PARKWAY,BROOKLYN,NY,11235,GENERAL ACUTE CARE,OPEN,371,KINGS,USA,40.58541438,-73.96533243,GOVERNMENT - LOCAL,371
16911209,NYU LUTHERAN MEDICAL CENTER,150 55TH ST,BROOKLYN,NY,11209,GENERAL ACUTE CARE,OPEN,396,KINGS,USA,40.64656399,-74.02091469,NON-PROFIT,396
15210036,JACOBI MEDICAL CENTER,1400 PELHAM PARKWAY SOUTH,BRONX,NY,10036,GENERAL ACUTE CARE,OPEN,457,BRONX,USA,40.85629836,-73.84751215,GOVERNMENT - LOCAL,457
17011215,NEW YORK METHODIST HOSPITAL,506 6TH ST,BROOKLYN,NY,11215,GENERAL ACUTE CARE,OPEN,591,KINGS,USA,40.6677617,-73.97899052,NON-PROFIT,591
17910003,NYU HOSPITAL FOR JOINT DISEASES,301 E 17TH ST,NEW YORK,NY,10003,GENERAL ACUTE CARE,OPEN,225,NEW YORK,USA,40.73443169,-73.98299996,NON-PROFIT,225
18610032,NEW YORK PRESBYTERIAN MORGAN STANLEY CHILDREN'S HOSPITAL,3959 BROADWAY,NEW YORK,NY,10032,CHILDREN,OPEN,190,NEW YORK,USA,40.83976326,-73.94128258,NON-PROFIT,190
18810019,THE ADDICTION INSTITUTE OF NEW YORK,1000 10TH AVE,NEW YORK,NY,10019,PSYCHIATRIC,CLOSED,-999,NEW YORK,USA,40.76941213,-73.9868084,NON-PROFIT,-999
19611373,ELMHURST HOSPITAL CENTER,79-01 BROADWAY,ELMHURST,NY,11373,GENERAL ACUTE CARE,OPEN,551,QUEENS,USA,40.74482736,-73.88607967,GOVERNMENT - LOCAL,551
19711414,JAMAICA HOSPITAL MEDICAL CENTER,8900 VAN WYCK EXPRESSWAY,JAMAICA,NY,11414,GENERAL ACUTE CARE,OPEN,408,QUEENS,USA,40.70010365,-73.81611489,NON-PROFIT,408
14860942,HOOPESTON COMMUNITY MEMORIAL HOSPITAL,701 EAST ORANGE STREET,HOOPESTON,IL,60942,CRITICAL ACCESS,OPEN,99,VERMILION,USA,40.45868989,-87.65973327,NON-PROFIT,99
4761832,OSF HEALTHCARESYSTEM DBA SACRED HEART MEDICAL CENTER,812 N LOGAN,DANVILLE,IL,61832,GENERAL ACUTE CARE,OPEN,127,VERMILION,USA,40.13783245,-87.64543324,NON-PROFIT,127
10942101,THE MEDICAL CENTER AT BOWLING GREEN,250 PARK STREET,BOWLING GREEN,KY,42101,GENERAL ACUTE CARE,OPEN,337,WARREN,USA,36.99597151,-86.42975938,NON-PROFIT,337
20311355,NEW YORK PRESBYTERIAN QUEENS,56 45 MAIN ST,FLUSHING,NY,11355,GENERAL ACUTE CARE,OPEN,519,QUEENS,USA,40.74677228,-73.82541638,NON-PROFIT,519
185067037,"ROCK REGIONAL HOSPITAL, LLC",3251 N ROCK RD,DERBY,KS,67037,LONG TERM CARE,OPEN,-999,SEDGWICK,USA,37.58277168,-97.24698571,NOT AVAILABLE,31
114511542,GLEN COVE HOSPITAL,101 ST ANDREWS LANE,GLEN COVE,NY,11542,GENERAL ACUTE CARE,OPEN,247,NASSAU,USA,40.8710014,-73.62238567,NON-PROFIT,247
2040484,EPHRAIM MCDOWELL FORT LOGAN HOSPITAL,110 METKER TRAIL,STANFORD,KY,40484,CRITICAL ACCESS,OPEN,25,LINCOLN,USA,37.54279432,-84.65303656,NON-PROFIT,25
4942078,LIVINGSTON HOSPITAL AND HEALTHCARE SERVICES,131 HOSPITAL DRIVE,SALEM,KY,42078,CRITICAL ACCESS,OPEN,25,LIVINGSTON,USA,37.26305319,-88.22850246,NON-PROFIT,25
115310802,MONTEFIORE NEW ROCHELLE HOSPITAL,16 GUION PLACE,NEW ROCHELLE,NY,10802,GENERAL ACUTE CARE,OPEN,223,WESTCHESTER,USA,40.91280606,-73.7877626,NON-PROFIT,23
115411234,MOUNT SINAI BETH ISRAEL BROOKLYN,3201 KINGS HIGHWAY,BROOKLYN,NY,11234,GENERAL ACUTE CARE,OPEN,212,KINGS,USA,40.6188201,-73.94290124,NON-PROFIT,212
115710605,NEW YORK PRESBYTERIAN HOSPITAL - WESTCHESTER DIVISION,21 BLOOMINGDALE ROAD,WHITE PLAINS,NY,10605,PSYCHIATRIC,OPEN,270,WESTCHESTER,USA,41.02757951,-73.75390988,NON-PROFIT,270
116710037,HARLEM HOSPITAL CENTER,506 LENOX AVENUE,NEW YORK,NY,10037,GENERAL ACUTE CARE,OPEN,282,NEW YORK,USA,40.81426493,-73.93986126,GOVERNMENT - LOCAL,282
116810035,HENRY J. CARTER SPECIALTY HOSPITAL,1752 PARK AVENUE,NEW YORK,NY,10035,LONG TERM CARE,OPEN,201,NEW YORK,USA,40.80328511,-73.94162385,NOT AVAILABLE,201
116910457,SAINT BARNABAS HOSPITAL HEALTH SYSTEM,4422 THIRD AVENUE,BRONX,NY,10457,GENERAL ACUTE CARE,OPEN,461,BRONX,USA,40.85268901,-73.89136288,NON-PROFIT,461
117114810,IRA DAVENPORT MEMORIAL HOSPITAL INC,7571 STATE ROUTE 54,BATH,NY,14810,GENERAL ACUTE CARE,OPEN,35,STEUBEN,USA,42.3743292,-77.27890663,NON-PROFIT,35
117412010,ST. MARY'S HEALTHCARE - AMSTERDAM MEMORIAL CAMPUS,4988 STHWY 30,AMSTERDAM,NY,12010,GENERAL ACUTE CARE,OPEN,10,MONTGOMERY,USA,42.95906517,-74.18712293,NON-PROFIT,10
117712180,THE BURDETT CARE CENTER,2215 BURDETT AVENUE,TROY,NY,12180,WOMEN,OPEN,15,RENSSELAER,USA,42.73335775,-73.67266608,NON-PROFIT,15
5060450,MORRIS HOSPITAL & HEALTHCARE CENTERS,150 W HIGH ST,MORRIS,IL,60450,GENERAL ACUTE CARE,OPEN,89,GRUNDY,USA,41.3693259,-88.42675331,NON-PROFIT,89
10961104,SWEDISH AMERICAN HOSPITAL,1401 EAST STATE STREET,ROCKFORD,IL,61104,GENERAL ACUTE CARE,OPEN,325,WINNEBAGO,USA,42.26567488,-89.07413954,NON-PROFIT,325
11361103,JAVON BEA HOSPITAL DBA MERCY HEALTH HOSPITAL ROCKTON AVE,2400 NORTH ROCKTON AVENUE,ROCKFORD,IL,61101,GENERAL ACUTE CARE,OPEN,297,WINNEBAGO,USA,42.29842717,-89.09844135,NON-PROFIT,297
118212901,THE UNIVERSITY OF VERMONT HEALTH NETWORK - CHAMPLAIN VALLEY PHYSICIANS HOSPITAL,75 BEEKMAN ST,PLATTSBURGH,NY,12901,GENERAL ACUTE CARE,OPEN,300,CLINTON,USA,44.70044304,-73.46941987,NON-PROFIT,300
118510466,MONTEFIORE MEDICAL CENTER-WAKEFIELD HOSPITAL,600 EAST 233RD STREET,BRONX,NY,10466,GENERAL ACUTE CARE,OPEN,325,BRONX,USA,40.89369717,-73.86119119,NON-PROFIT,325
1920910,HOLY CROSS HOSPITAL,1500 FOREST GLEN ROAD,SILVER SPRING,MD,20910,GENERAL ACUTE CARE,OPEN,409,MONTGOMERY,USA,39.01472214,-77.03573523,NON-PROFIT,409
10560451,SILVER CROSS HOSPITAL AND MEDICAL CENTERS,1900 SILVER CROSS BLVD,NEW LENOX,IL,60451,GENERAL ACUTE CARE,OPEN,289,WILL,USA,41.54468733,-87.98343597,NON-PROFIT,289
13360440,ADVENTIST BOLINGBROOK HOSPITAL,500 REMINGTON BOULEVARD,BOLINGBROOK,IL,60440,GENERAL ACUTE CARE,OPEN,148,WILL,USA,41.68086496,-88.08465144,NON-PROFIT,148
2520744,FORT WASHINGTON HOSPITAL,11711 LIVINGSTON ROAD,FORT WASHINGTON,MD,20744,GENERAL ACUTE CARE,OPEN,37,PRINCE GEORGE'S,USA,38.72856337,-76.99270169,NON-PROFIT,37
118710025,MOUNT SINAI ST. LUKE'S,1111 AMSTERDAM AVENUE,NEW YORK,NY,10025,GENERAL ACUTE CARE,OPEN,495,NEW YORK,USA,40.80492254,-73.96159035,NON-PROFIT,495
118810032,NEW YORK PRESBYTERIAN HOSPITAL - COLUMBIA PRESBYTERIAN CENTER,622 WEST 168TH STREET,NEW YORK,NY,10032,GENERAL ACUTE CARE,OPEN,1007,NEW YORK,USA,40.84105288,-73.94068652,NON-PROFIT,1007
118910021,NEW YORK PRESBYTERIAN HOSPITAL - NEW YORK WEILL CORNELL CENTER,525 EAST 68TH STREET,NEW YORK,NY,10021,GENERAL ACUTE CARE,OPEN,862,NEW YORK,USA,40.76454994,-73.95433226,NON-PROFIT,862
119511201,NYULMC - COBBLE HILL,83 AMITY STREET,BROOKLYN,NY,11201,GENERAL ACUTE CARE,CLOSED,-999,KINGS,USA,40.68987342,-73.99776571,NON-PROFIT,-999
119614420,URMC STRONG WEST,156 WEST AVENUE,BROCKPORT,NY,14420,GENERAL ACUTE CARE,OPEN,-999,MONROE,USA,43.22161178,-77.94457511,NON-PROFIT,-999
120114222,WOMEN AND CHILDREN'S HOSPITAL OF BUFFALO,219 BRYANT STREET,BUFFALO,NY,14222,CHILDREN,OPEN,200,ERIE,USA,42.90920851,-78.87520901,NON-PROFIT,200
120511501,NYU WINTHROP-UNIVERSITY HOSPITAL,259 FIRST STREET,MINEOLA,NY,11501,GENERAL ACUTE CARE,OPEN,591,NASSAU,USA,40.74069748,-73.6430084,GOVERNMENT - STATE,591
120614701,UPMC CHAUTAUQUA AT WCA,51 GLASGOW AVENUE,JAMESTOWN,NY,14701,PSYCHIATRIC,OPEN,40,CHAUTAUQUA,USA,42.09116724,-79.24536584,NON-PROFIT,40
121310703,SJRH - PARK CARE PAVILION,2 PARK AVENUE,YONKERS,NY,10703,PSYCHIATRIC,OPEN,141,WESTCHESTER,USA,40.94038607,-73.89165239,NON-PROFIT,141
10314424,VA MEDICAL CENTER - CANANDAIGUA,400 FORT HILL AVE,CANANDAIGUA,NY,14424,MILITARY,OPEN,-999,ONTARIO,USA,42.90123744,-77.26963606,GOVERNMENT - FEDERAL,-999
25710536,FOUR WINDS HOSPITAL WESTCHESTER,800 CROSS RIVER ROAD,KATONAH,NY,10536,PSYCHIATRIC,OPEN,178,WESTCHESTER,USA,41.26639132,-73.62071751,PROPRIETARY,178
25812866,FOUR WINDS HOSPITAL SARATOGA,30 CRESCENT AVENUE,SARATOGA SPRINGS,NY,12866,PSYCHIATRIC,OPEN,88,SARATOGA,USA,43.05813047,-73.78539606,PROPRIETARY,88
5842420,METHODIST HOSPITAL,1305 N ELM STREET,HENDERSON,KY,42420,GENERAL ACUTE CARE,OPEN,192,HENDERSON,USA,37.85497461,-87.58319902,NON-PROFIT,192
13062864,CROSSROADS COMMUNITY HOSPITAL,8 DOCTORS PARK ROAD,MOUNT VERNON,IL,62864,GENERAL ACUTE CARE,OPEN,41,JEFFERSON,USA,38.31164516,-88.93688084,PROPRIETARY,41
1360504,COPLEY MEMORIAL HOSPITAL INC DBA RUSH COPLEY MEDICAL CENTER,2000 OGDEN AVENUE,AURORA,IL,60504,GENERAL ACUTE CARE,OPEN,210,KANE,USA,41.72900718,-88.27061598,GOVERNMENT - LOCAL,210
10460134,DELNOR COMMUNITY HOSPITAL,300 RANDALL RD,GENEVA,IL,60134,GENERAL ACUTE CARE,OPEN,159,KANE,USA,41.88661497,-88.34345036,NON-PROFIT,159
8460506,PRESENCE CENTRAL AND SUBURBAN HOSPITALS NETWORK DBA PRESENCE MERCY MEDICAL CENTER,1325 N HIGHLAND AVENUE,AURORA,IL,60506,GENERAL ACUTE CARE,OPEN,293,KANE,USA,41.78580955,-88.32576904,NON-PROFIT,293
440383,BLUEGRASS COMMUNITY HOSPITAL,360 AMSDEN AVE.,VERSAILLES,KY,40383,GENERAL ACUTE CARE,OPEN,25,WOODFORD,USA,38.05476569,-84.72378834,NON-PROFIT,25
10610468,JAMES J. PETERS VA MEDICAL CENTER,130 W KINGSBRIDGE RD,BRONX,NY,10468,MILITARY,OPEN,-999,BRONX,USA,40.86734866,-73.90638209,GOVERNMENT - FEDERAL,311
8476825,HEART OF TEXAS MEMORIAL HOSPITAL,2008 NINE RD,BRADY,TX,76825,CRITICAL ACCESS,OPEN,25,MCCULLOCH,USA,31.1176885,-99.34685361,NON-PROFIT,25
17677957,JACKSON COUNTY HOSPITAL,1013 SOUTH WELLS STREET,EDNA,TX,77957,CRITICAL ACCESS,OPEN,25,JACKSON,USA,28.96910475,-96.63588688,GOVERNMENT - DISTRICT/AUTHORITY,25
19176936,SCHLEICHER COUNTY MEDICAL CENTER,400 MURCHISON AVENUE,ELDORADO,TX,76936,CRITICAL ACCESS,OPEN,14,SCHLEICHER,USA,30.86300194,-100.6029941,PROPRIETARY,14
10542718,TAYLOR REGIONAL HOSPITAL,1700 OLD LEBANON ROAD,CAMPBELLSVILLE,KY,42718,GENERAL ACUTE CARE,OPEN,90,TAYLOR,USA,37.36635176,-85.33810656,GOVERNMENT - DISTRICT/AUTHORITY,90
39179346,COCHRAN MEMORIAL HOSPITAL,201 EAST GRANT AVENUE,MORTON,TX,79346,CRITICAL ACCESS,OPEN,18,COCHRAN,USA,33.71973751,-102.7575223,GOVERNMENT - DISTRICT/AUTHORITY,18
4521502,WESTERN MARYLAND REGIONAL MEDICAL CENTER,12500 WILLOWBROOK ROAD,CUMBERLAND,MD,21502,GENERAL ACUTE CARE,OPEN,371,ALLEGANY,USA,39.64783067,-78.7332415,NON-PROFIT,371
4621401,ANNE ARUNDEL MEDICAL CENTER,2001 MEDICAL PARKWAY,ANNAPOLIS,MD,21401,GENERAL ACUTE CARE,OPEN,380,ANNE ARUNDEL,USA,38.98992672,-76.53461243,NON-PROFIT,380
1261856,KIRBY MEDICAL CENTER,1000 MEDICAL CENTER DRIVE,MONTICELLO,IL,61856,CRITICAL ACCESS,OPEN,16,PIATT,USA,40.06044805,-88.5588217,NON-PROFIT,16
3561603,SAINT FRANCIS MEDICAL CENTER,530 NE GLEN OAK AVE,PEORIA,IL,61603,GENERAL ACUTE CARE,OPEN,631,PEORIA,USA,40.70274682,-89.59196543,NON-PROFIT,631
14762363,BLESSING CARE CORPORATION ILLINI COMMUNITY HOSPITAL,640 W WASHINGTON,PITTSFIELD,IL,62363,CRITICAL ACCESS,OPEN,21,PIKE,USA,39.60744348,-90.8151327,NON-PROFIT,21
16674447,MUSCOGEE (CREEK) NATION PHYSICAL REHABILITATION CENTER,900 EAST AIRPORT ROAD,OKMULGEE,OK,74447,REHABILITATION,OPEN,26,OKMULGEE,USA,35.66753235,-95.96033181,GOVERNMENT - FEDERAL,26
962301,BLESSING HOSPITAL,BROADWAY AT 11TH STREET,QUINCY,IL,62301,GENERAL ACUTE CARE,OPEN,335,ADAMS,USA,39.93635888,-91.3994572,NON-PROFIT,335
14573102,VALIR REHABILITATION HOSPITAL OF OKC,700 NW SEVENTH STREET,OKLAHOMA CITY,OK,73102,REHABILITATION,OPEN,81,OKLAHOMA,USA,35.47489624,-97.52494158,PROPRIETARY,50
10261603,METHODIST MEDICAL CENTER OF ILLINOIS,221 N E GLEN OAK AVE,PEORIA,IL,61606,GENERAL ACUTE CARE,OPEN,269,PEORIA,USA,40.7003058,-89.59491684,NON-PROFIT,269
1760611,REHABILITATION INSTITUTE OF CHICAGO,345 EAST SUPERIOR STREET,CHICAGO,IL,60611,REHABILITATION,OPEN,182,COOK,USA,41.89545454,-87.6183348,NON-PROFIT,182
1860130,RIVEREDGE HOSPITAL,8311 WEST ROOSEVELT ROAD,FOREST  PARK,IL,60130,PSYCHIATRIC,OPEN,224,COOK,USA,41.86489307,-87.82828251,PROPRIETARY,224
2560076,NORTHSHORE UNIVERSITY HEALTH SYSTEM SKOKIE HOSPITAL,9600 GROSS POINT ROAD,SKOKIE,IL,60076,GENERAL ACUTE CARE,OPEN,234,COOK,USA,42.05641606,-87.74070961,NON-PROFIT,234
3260304,RUSH OAK PARK HOSPITAL,520 S MAPLE AVE,OAK PARK,IL,60304,GENERAL ACUTE CARE,OPEN,114,COOK,USA,41.87861801,-87.80335153,NON-PROFIT,114
3460525,ADVENTIST MIDWEST HEALTH DBA ADVENTIST LA GRANGE MEMORIAL HOSPITAL,5101 S WILLOW SPRINGS RD,LA GRANGE,IL,60525,GENERAL ACUTE CARE,OPEN,187,COOK,USA,41.79706055,-87.88639493,NON-PROFIT,187
460160,GOTTLEB MEMORIAL HOSPITAL LOYOLA HEALTH SYSTEM AT GOTTLIEB,701 WEST NORTH AVE,MELROSE PARK,IL,60160,GENERAL ACUTE CARE,OPEN,255,COOK,USA,41.91052978,-87.84281507,NON-PROFIT,255
57375494,CHRISTUS MOTHER FRANCES HOSPITAL - WINNSBORO,719 WEST COKE ROAD,WINNSBORO,TX,75494,CRITICAL ACCESS,OPEN,25,WOOD,USA,32.94453832,-95.30727963,NON-PROFIT,25
57677995,YOAKUM COMMUNITY HOSPITAL,1200 CARL RAMERT DRIVE,YOAKUM,TX,77995,CRITICAL ACCESS,OPEN,25,LAVACA,USA,29.30695852,-97.12915909,NON-PROFIT,25
4160644,LORETTO HOSPITAL,645 SOUTH CENTRAL AVE,CHICAGO,IL,60644,GENERAL ACUTE CARE,OPEN,176,COOK,USA,41.87212457,-87.76408865,NON-PROFIT,176
4360637,THE UNIVERSITY OF CHICAGO MEDICAL CENTER,5841 SOUTH MARYLAND,CHICAGO,IL,60637,GENERAL ACUTE CARE,OPEN,577,COOK,USA,41.78874685,-87.60433713,NON-PROFIT,577
137479007,GOLDEN PLAINS COMMUNITY HOSPITAL,100 MEDICAL DRIVE,BORGER,TX,79007,CRITICAL ACCESS,OPEN,25,HUTCHINSON,USA,35.65513819,-101.4091807,PROPRIETARY,25
5560613,THOREK MEMORIAL HOSPITAL,850 W IRVING PARK RD,CHICAGO,IL,60613,GENERAL ACUTE CARE,OPEN,134,COOK,USA,41.95518902,-87.65162124,NON-PROFIT,134
6260612,JOHN H STROGER JR HOSPITAL,1901 W HARRISON ST,CHICAGO,IL,60612,GENERAL ACUTE CARE,OPEN,460,COOK,USA,41.87233487,-87.67439846,GOVERNMENT - LOCAL,460
7660616,MERCY HOSPITAL AND MEDICAL CENTER,2525 S MICHIGAN AVE,CHICAGO,IL,60616,GENERAL ACUTE CARE,OPEN,421,COOK,USA,41.84688958,-87.6214916,NON-PROFIT,421
8760805,LITTLE COMPANY OF MARY HOSPITAL,2800 W 95TH ST,EVERGREEN PARK,IL,60805,GENERAL ACUTE CARE,OPEN,288,COOK,USA,41.721465,-87.69302888,NON-PROFIT,288
9060657,ADVOCATE NORTHSIDE HEALTH NETWORK DBA ILLINOIS MASONIC MEDICAL CENTER,836 WEST WELLINGTON AVENUE,CHICAGO,IL,60657,GENERAL ACUTE CARE,OPEN,330,COOK,USA,41.93674085,-87.65137166,NON-PROFIT,330
9760609,METHODIST HOSPITAL OF CHICAGO,5025 N PAULINA STREET,CHICAGO,IL,60640,GENERAL ACUTE CARE,OPEN,189,COOK,USA,41.97308677,-87.67074306,NON-PROFIT,189
10160453,ADVOCATE CHRIST HOSPITAL & MEDICAL CENTER,4440 W 95TH STREET,OAK LAWN,IL,60453,GENERAL ACUTE CARE,OPEN,684,COOK,USA,41.72169452,-87.73244225,NON-PROFIT,684
10760068,LUTHERAN GENERAL HOSPITAL ADVOCATE,1775 DEMPSTER ST,PARK RIDGE,IL,60068,GENERAL ACUTE CARE,OPEN,624,COOK,USA,42.03880223,-87.84733438,NON-PROFIT,624
11860005,NORTHWEST COMMUNITY HOSPITAL,800 W CENTRAL ROAD,ARLINGTON HEIGHTS,IL,60005,GENERAL ACUTE CARE,OPEN,386,COOK,USA,42.06829111,-87.99218163,NON-PROFIT,386
11960007,ALEXIAN BROTHERS MEDICAL CENTER,800 W BIESTERFIELD RD,ELK GROVE VILLAGE,IL,60007,GENERAL ACUTE CARE,OPEN,370,COOK,USA,42.00465682,-88.01689228,NON-PROFIT,370
12360611,NORTHWESTERN MEMORIAL HOSPITAL,251 E HURON ST,CHICAGO,IL,60611,GENERAL ACUTE CARE,OPEN,885,COOK,USA,41.89460771,-87.62102437,NON-PROFIT,885
12760169,ST ALEXIUS MEDICAL CENTER,1555 N BARRINGTON RD,HOFFMAN ESTATES,IL,60169,GENERAL ACUTE CARE,OPEN,305,COOK,USA,42.05292846,-88.14103422,NON-PROFIT,305
13160615,PROVIDENT HOSPITAL OF COOK COUNTY,500 E 51ST ST,CHICAGO,IL,60615,GENERAL ACUTE CARE,OPEN,25,COOK,USA,41.80267501,-87.61332387,GOVERNMENT - LOCAL,25
8742642,RUSSELL COUNTY HOSPITAL,"153 DOWELL RD., PO BOX 1610",RUSSELL SPRINGS,KY,42642,GENERAL ACUTE CARE,OPEN,25,RUSSELL,USA,37.05758045,-85.06735281,GOVERNMENT - LOCAL,25
4125801,RALEIGH GENERAL HOSPITAL,1710 HARPER ROAD,BECKLEY,WV,25801,GENERAL ACUTE CARE,OPEN,300,RALEIGH,USA,37.7875544,-81.20193159,PROPRIETARY,300
8640456,ROCKCASTLE REGIONAL HOSPITAL & RESPIRATORY CARE CENTER,145 NEWCOMB AVE,MT VERNON,KY,40456,GENERAL ACUTE CARE,OPEN,26,ROCKCASTLE,USA,37.35796432,-84.33590332,NON-PROFIT,26
5821921,UNION HOSPITAL OF CECIL COUNTY,106 BOW STREET,ELKTON,MD,21921,GENERAL ACUTE CARE,OPEN,122,CECIL,USA,39.60851453,-75.83196705,NON-PROFIT,122
140207,BAPTIST HEALTH LOUISVILLE,4000 KRESGE WAY,LOUISVILLE,KY,40207,GENERAL ACUTE CARE,OPEN,519,JEFFERSON,USA,38.23811825,-85.6371443,NON-PROFIT,519
4040202,JEWISH HOSPITAL & ST. MARY'S HEALTHCARE,200 ABRAHAM FLEXNER WAY,LOUISVILLE,KY,40202,GENERAL ACUTE CARE,OPEN,462,JEFFERSON,USA,38.24913165,-85.7511895,PROPRIETARY,462
4440204,KINDRED HOSPITAL - LOUISVILLE,1313 SAINT ANTHONY PLACE,LOUISVILLE,KY,40204,LONG TERM CARE,OPEN,337,JEFFERSON,USA,38.24265652,-85.73123773,PROPRIETARY,337
7540205,OUR LADY OF PEACE,2020 NEWBURG RD,LOUISVILLE,KY,40205,PSYCHIATRIC,OPEN,396,JEFFERSON,USA,38.218809,-85.71059213,NON-PROFIT,396
11740202,UNIVERSITY OF LOUISVILLE HOSPITAL,530 S JACKSON ST,LOUISVILLE,KY,40202,GENERAL ACUTE CARE,OPEN,404,JEFFERSON,USA,38.24832296,-85.74433596,NON-PROFIT,404
7941240,PAUL B HALL REGIONAL MEDICAL CENTER,625 JAMES S TRIMBLE BLVD,PAINTSVILLE,KY,41240,GENERAL ACUTE CARE,OPEN,72,JOHNSON,USA,37.81551094,-82.8130513,PROPRIETARY,72
825438,JEFFERSON MEDICAL CENTER,300 SOUTH PRESTON STREET,RANSON,WV,25438,CRITICAL ACCESS,OPEN,25,JEFFERSON,USA,39.29598914,-77.85875906,NON-PROFIT,25
3625901,PLATEAU MEDICAL CENTER,430 MAIN STREET,OAK HILL,WV,25901,CRITICAL ACCESS,OPEN,25,FAYETTE,USA,37.97127658,-81.14978059,PROPRIETARY,25
3226147,MINNIE HAMILTON HEALTH CARE CENTER,186 HOSPITAL DRIVE,GRANTSVILLE,WV,26147,CRITICAL ACCESS,OPEN,42,CALHOUN,USA,38.92276007,-81.09249296,NON-PROFIT,42
1825701,ST MARY'S MEDICAL CENTER,2900 1ST AVENUE,HUNTINGTON,WV,25701,GENERAL ACUTE CARE,OPEN,393,CABELL,USA,38.43055045,-82.40041273,NON-PROFIT,393
4024740,PRINCETON COMMUNITY HOSPITAL,"122 12TH STREET, PO BOX 1369",PRINCETON,WV,24740,GENERAL ACUTE CARE,OPEN,267,MERCER,USA,37.36271893,-81.11301085,GOVERNMENT - LOCAL,267
3725550,PLEASANT VALLEY HOSPITAL,2520 VALLEY DRIVE,POINT PLEASANT,WV,25550,GENERAL ACUTE CARE,OPEN,201,MASON,USA,38.86906541,-82.12322387,NON-PROFIT,201
1425130,BOONE MEMORIAL HOSPITAL,701 MADISON AVENUE,MADISON,WV,25130,CRITICAL ACCESS,OPEN,25,BOONE,USA,38.0482,-81.80619,GOVERNMENT - LOCAL,25
5824924,POCAHONTAS MEMORIAL HOSPITAL,"150 DUNCAN RD, RR BOX 52 WEST",BUCKEYE,WV,24924,CRITICAL ACCESS,OPEN,25,POCAHONTAS,USA,38.20082912,-80.1089784,GOVERNMENT - LOCAL,25
3926537,PRESTON MEMORIAL HOSPITAL,300 S PRICE STREET,KINGWOOD,WV,26537,CRITICAL ACCESS,CLOSED,25,PRESTON,USA,39.46507784,-79.6878575,NON-PROFIT,25
5026452,WILLIAM R SHARPE JR HOSPITAL,936 SHARPE HOSPITAL ROAD,WESTON,WV,26452,PSYCHIATRIC,OPEN,150,LEWIS,USA,39.04114927,-80.49630427,GOVERNMENT - STATE,150
188666160,UNIVERSITY OF KANSAS HOSPITAL TRANSPLANT CENTER,4000 CAMPBRIDGE ST,KANSAS CITY,KS,66160,SPECIAL,OPEN,-999,WYANDOTTE,USA,39.0558273,-94.6089825,NOT AVAILABLE,936
1726201,ST JOSEPH HOSPITAL,1 AMALIA DRIVE,BUCKHANNON,WV,26201,CRITICAL ACCESS,OPEN,51,UPSHUR,USA,38.99141205,-80.2363893,NON-PROFIT,51
2325401,BERKELEY MEDICAL CENTER,2500 HOSPITAL DRIVE,MARTINSBURG,WV,25401,GENERAL ACUTE CARE,OPEN,241,BERKELEY,USA,39.47624347,-77.98023718,NON-PROFIT,195
6326506,WEST VIRGINIA UNIVERSITY HOSPITALS,1 MEDICAL CENTER DRIVE,MORGANTOWN,WV,26506,GENERAL ACUTE CARE,OPEN,645,MONONGALIA,USA,39.65442257,-79.95802214,NON-PROFIT,677
1026038,REYNOLDS MEMORIAL HOSPITAL,800 WHEELING AVE,GLEN DALE,WV,26038,GENERAL ACUTE CARE,OPEN,127,MARSHALL,USA,39.94614193,-80.75243755,NON-PROFIT,90
1562401,ST ANTHONYS MEMORIAL HOSPITAL,503 N MAPLE STREET,EFFINGHAM,IL,62401,GENERAL ACUTE CARE,OPEN,146,EFFINGHAM,USA,39.12577602,-88.55012522,NON-PROFIT,146
5641056,MEADOWVIEW REGIONAL MEDICAL CENTER,989 MEDICAL PARK DRIVE,MAYSVILLE,KY,41056,GENERAL ACUTE CARE,OPEN,100,MASON,USA,38.63997438,-83.80810517,PROPRIETARY,100
10041042,ST. ELIZABETH FLORENCE,4900 HOUSTON ROAD,FLORENCE,KY,41042,GENERAL ACUTE CARE,OPEN,161,BOONE,USA,39.01659182,-84.63076721,NON-PROFIT,231
8140977,PINEVILLE COMMUNITY HOSPITAL,850 RIVERVIEW AVE,PINEVILLE,KY,40977,GENERAL ACUTE CARE,OPEN,120,BELL,USA,36.76291694,-83.70776873,NON-PROFIT,120
12061282,GENESIS HEALTH SYSTEM DBA GENESIS MEDICAL CENTER - SILVIS,801 ILLINI DRIVE,SILVIS,IL,61282,GENERAL ACUTE CARE,OPEN,101,ROCK ISLAND,USA,41.49432574,-90.41841611,NON-PROFIT,101
12261201,TRINITY MEDICAL CENTER(WEST) DBA TRINITY ROCK ISLAND,2701 17TH ST,ROCK ISLAND,IL,61201,GENERAL ACUTE CARE,OPEN,343,ROCK ISLAND,USA,41.48261527,-90.57041813,NON-PROFIT,343
7262702,MEMORIAL MEDICAL CENTER,701 N FIRST ST,SPRINGFIELD,IL,62702,GENERAL ACUTE CARE,OPEN,473,SANGAMON,USA,39.80936884,-89.6557791,NON-PROFIT,473
2140422,EPHRAIM MCDOWELL REGIONAL MEDICAL CENTER,217 SOUTH THIRD STREET,DANVILLE,KY,40422,GENERAL ACUTE CARE,OPEN,222,BOYLE,USA,37.64387331,-84.77300114,NON-PROFIT,197
4661801,THE CARLE FOUNDATION HOSPITAL,611 WEST PARK STREET,URBANA,IL,61801,GENERAL ACUTE CARE,OPEN,322,CHAMPAIGN,USA,40.11704176,-88.21494866,NON-PROFIT,322
171954801,SPOONER HOSPITAL SYS,819 ASH ST,SPOONER,WI,54801,GENERAL ACUTE CARE,CLOSED,25,WASHBURN,USA,45.82559733,-91.89634651,NON-PROFIT,25
9740033,SPRING VIEW HOSPITAL,320 LORETTO ROAD,LEBANON,KY,40033,GENERAL ACUTE CARE,OPEN,75,MARION,USA,37.56982888,-85.26145641,PROPRIETARY,75
6342345,OWENSBORO HEALTH MUHLENBERG COMMUNITY HOSPITAL,440 HOPKINSVILLE STREET,GREENVILLE,KY,42345,GENERAL ACUTE CARE,OPEN,90,MUHLENBERG,USA,37.19653539,-87.1892945,NON-PROFIT,90
171613210,HUTCHINGS PSYCHIATRIC CENTER,620 MADISON STREET,SYRACUSE,NY,13210,PSYCHIATRIC,OPEN,105,ONONDAGA,USA,43.04519375,-76.14054445,GOVERNMENT - STATE,154
742445,CALDWELL MEDICAL CENTER,100 MEDICAL CENTER DRIVE,PRINCETON,KY,42445,CRITICAL ACCESS,OPEN,25,CALDWELL,USA,37.11367431,-87.90960048,NON-PROFIT,25
10442141,T J SAMSON COMMUNITY HOSPITAL,1301 NORTH RACE STREET,GLASGOW,KY,42141,GENERAL ACUTE CARE,OPEN,180,BARREN,USA,37.01139239,-85.90451397,NON-PROFIT,180
14174820,ROLLING HILLS HOSPITAL,1000 ROLLING HILLS LANE,ADA,OK,74820,PSYCHIATRIC,OPEN,60,PONTOTOC,USA,34.78459567,-96.62745078,PROPRIETARY,60
10973737,FAIRVIEW REGIONAL MEDICAL CENTER,523 EAST STATE ROAD,FAIRVIEW,OK,73737,CRITICAL ACCESS,OPEN,25,MAJOR,USA,36.27598778,-98.47452341,GOVERNMENT - DISTRICT/AUTHORITY,25
1874578,LATIMER COUNTY GENERAL HOSPITAL,806 HIGHWAY 2 NORTH,WILBURTON,OK,74578,GENERAL ACUTE CARE,OPEN,33,LATIMER,USA,34.91947628,-95.32085573,GOVERNMENT - LOCAL,33
14662644,MASON DISTRICT HOSPITAL,"615 NORTH PROMENADE STREET, P O BOX 530",HAVANA,IL,62644,CRITICAL ACCESS,OPEN,20,MASON,USA,40.30542314,-90.0540907,GOVERNMENT - DISTRICT/AUTHORITY,20
12042240,WESTERN STATE HOSPITAL,2400 RUSSELLVILLE ROAD,HOPKINSVILLE,KY,42240,PSYCHIATRIC,OPEN,495,CHRISTIAN,USA,36.86466922,-87.45126672,GOVERNMENT - STATE,495
8041501,PIKEVILLE MEDICAL CENTER,911 BYPASS RD,PIKEVILLE,KY,41501,GENERAL ACUTE CARE,OPEN,261,PIKE,USA,37.47124167,-82.5222475,NON-PROFIT,340
6973104,OU MEDICAL CENTER -THE CHILDREN'S HOSPITAL,1200 CHILDREN'S AVE,OKLAHOMA CITY,OK,73104,CHILDREN,OPEN,314,OKLAHOMA,USA,35.48165324,-97.49610501,PROPRIETARY,314
2057567,HANS P PETERSON MEMORIAL HOSPITAL,503 WEST PINE STREET,PHILIP,SD,57567,CRITICAL ACCESS,OPEN,18,HAAKON,USA,44.03980876,-101.6714768,NON-PROFIT,18
6474501,MCALESTER REGIONAL HEALTH CENTER,ONE CLARK BASS BOULEVARD,MCALESTER,OK,74501,GENERAL ACUTE CARE,OPEN,170,PITTSBURG,USA,34.93688174,-95.75092529,GOVERNMENT - LOCAL,149
3973134,OKLAHOMA SPINE HOSPITAL,14101 PARKWAY COMMONS DRIVE,OKLAHOMA CITY,OK,73134,SPECIAL,OPEN,25,OKLAHOMA,USA,35.61450132,-97.5833,PROPRIETARY,25
7961701,ST JOSEPH MEDICAL CENTER,2200 E WASHINGTON,BLOOMINGTON,IL,61701,GENERAL ACUTE CARE,OPEN,-999,MCLEAN,USA,40.48267659,-88.9555622,NON-PROFIT,149
3341701,HAZARD ARH REGIONAL MEDICAL CENTER,100 MEDICAL CENTER DRIVE,HAZARD,KY,41701,GENERAL ACUTE CARE,OPEN,358,PERRY,USA,37.27829795,-83.22788224,NON-PROFIT,358
12341503,TUG VALLEY ARH REGIONAL MEDICAL CENTER,260 HOSPITAL DRIVE,SOUTH WILLIAMSON,KY,41503,GENERAL ACUTE CARE,OPEN,113,PIKE,USA,37.67651064,-82.29702272,NON-PROFIT,113
6762526,DECATUR MEMORIAL HOSPITAL,2300 NORTH EDWARD STREET,DECATUR,IL,62526,GENERAL ACUTE CARE,OPEN,188,MACON,USA,39.8672534,-88.96098295,NON-PROFIT,188
5660050,NORTHWESTERN MEDICINE MCHENRY WOODSTOCK HUNTLEY HOSPITAL,4201 MEDICAL CENTER DRIVE,MCHENRY,IL,60050,GENERAL ACUTE CARE,OPEN,173,MCHENRY,USA,42.31779814,-88.279468,NON-PROFIT,173
6461761,ADVOCATE HEALTH AND HOSPITALS CORPORATION DBA ADVOCATE BROMENN HEALTHCARE,1304 FRANKLIN AVENUE,NORMAL,IL,61761,GENERAL ACUTE CARE,OPEN,200,MCLEAN,USA,40.49697098,-88.99085,NON-PROFIT,200
1903860,MEMORIAL HOSPITAL,3073 WHITE MOUNTAIN HIGHWAY,NORTH CONWAY,NH,3860,GENERAL ACUTE CARE,OPEN,25,CARROLL,USA,44.06181269,-71.1368538,GOVERNMENT - LOCAL,25
803431,CHESHIRE MEDICAL CENTER,580 COURT STREET,KEENE,NH,3431,GENERAL ACUTE CARE,OPEN,169,CHESHIRE,USA,42.9488432,-72.2919009,NON-PROFIT,169
1803561,LITTLETON REGIONAL HEALTHCARE,600 ST. JOHNSBURY ROAD,LITTLETON,NH,3561,GENERAL ACUTE CARE,OPEN,25,GRAFTON,USA,44.31793388,-71.82555904,NON-PROFIT,25
2903766,ALICE PECK DAY MEMORIAL HOSPITAL,10 ALICE PECK DAY DRIVE,LEBANON,NH,3766,GENERAL ACUTE CARE,OPEN,25,GRAFTON,USA,43.63844773,-72.28600257,NON-PROFIT,25
3874344,INTEGRIS GROVE HOSPITAL,1001 EAST 18TH STREET,GROVE,OK,74344,GENERAL ACUTE CARE,OPEN,58,DELAWARE,USA,36.58128735,-94.75857669,NON-PROFIT,58
1703246,LAKES REGION GENERAL HOSPITAL,80 HIGHLAND STREET,LACONIA,NH,3246,GENERAL ACUTE CARE,OPEN,137,BELKNAP,USA,43.52855555,-71.46318101,NON-PROFIT,137
6021613,ACH BEHAVIORAL HEALTH AND WELLNESS SERVICES,821 FIELDCREST DRIVE,CAMBRIDGE,MD,21613,PSYCHIATRIC,OPEN,283,DORCHESTER,USA,38.54945363,-76.05799123,NON-PROFIT,283
6373702,INTEGRIS BASS BAPTIST HEALTH CENTER,600 SOUTH MONROE STREET,ENID,OK,73702,GENERAL ACUTE CARE,OPEN,183,GARFIELD,USA,36.39016529,-97.88742558,NON-PROFIT,183
4373521,JACKSON COUNTY MEMORIAL HOSPITAL,1200 EAST PECAN STREET,ALTUS,OK,73521,GENERAL ACUTE CARE,OPEN,49,JACKSON,USA,34.63523975,-99.31803877,GOVERNMENT - DISTRICT/AUTHORITY,49
11774462,HASKELL COUNTY COMMUNITY HOSPITAL,401 NORTHWEST 'H' STREET,STIGLER,OK,74462,CRITICAL ACCESS,OPEN,25,HASKELL,USA,35.26116507,-95.12875158,PROPRIETARY,25
6160521,ADVENTIST MIDWEST HEALTH DBA ADVENTIST HINSDALE HOSPITAL,120 NORTH OAK ST,HINSDALE,IL,60521,GENERAL ACUTE CARE,OPEN,277,DUPAGE,USA,41.80591716,-87.92122132,NON-PROFIT,277
9860126,ELMHURST MEMORIAL HOSPITAL,155 EAST BRUSH HILL ROAD,ELMHURST,IL,60126,GENERAL ACUTE CARE,OPEN,315,DUPAGE,USA,41.86376199,-87.93557914,NON-PROFIT,315
11560190,CENTRAL DUPAGE HOSPITAL,25 NORTH WINFIELD ROAD,WINFIELD,IL,60190,GENERAL ACUTE CARE,OPEN,344,DUPAGE,USA,41.87352056,-88.1557587,NON-PROFIT,344
12960139,ADVENTIST GLENOAKS,701 WINTHROP AVENUE,GLENDALE HEIGHTS,IL,60139,GENERAL ACUTE CARE,OPEN,141,DUPAGE,USA,41.9148249,-88.05697653,NON-PROFIT,141
9773801,ALLIANCEHEALTH WOODWARD,900 17TH STREET,WOODWARD,OK,73801,GENERAL ACUTE CARE,OPEN,87,WOODWARD,USA,36.43739791,-99.40033722,PROPRIETARY,87
189541018,SUN BEHAVIORAL HEALTH,820 DOLWICK DRIVE,ERLANGER,KY,41018,PSYCHIATRIC,OPEN,-999,KENTON,USA,39.038841,-84.594436,LIMITED LIABILITY COMPANY,197
7973505,SOUTHWESTERN MEDICAL CENTER,5602 SW LEE BOULEVARD,LAWTON,OK,73505,GENERAL ACUTE CARE,OPEN,199,COMANCHE,USA,34.59263525,-98.46274019,PROPRIETARY,199
13873505,JIM TALIAFERRO COMMUNITY MENTAL HEALTH CENTER,602 SW 38TH STREET,LAWTON,OK,73505,PSYCHIATRIC,OPEN,30,COMANCHE,USA,34.60310119,-98.43861928,GOVERNMENT - STATE,30
11074030,DRUMRIGHT REGIONAL HOSPITAL,610 W BYPASS,DRUMRIGHT,OK,74030,CRITICAL ACCESS,OPEN,15,CREEK,USA,35.99810679,-96.60596661,PROPRIETARY,15
8974074,STILLWATER MEDICAL CENTER,1323 WEST SIXTH AVENUE,STILLWATER,OK,74074,GENERAL ACUTE CARE,OPEN,117,PAYNE,USA,36.1150111,-97.07510207,GOVERNMENT - DISTRICT/AUTHORITY,117
1574743,CHOCTAW MEMORIAL HOSPITAL,1405 EAST KIRK STREET,HUGO,OK,74743,GENERAL ACUTE CARE,OPEN,34,CHOCTAW,USA,34.0123721,-95.49665009,GOVERNMENT - DISTRICT/AUTHORITY,34
3273069,NORMAN SPECIALTY HOSPITAL,1210 WEST ROBINSON STREET,NORMAN,OK,73069,LONG TERM CARE,CLOSED,50,CLEVELAND,USA,35.2323599,-97.46015234,PROPRIETARY,50
1174868,ALLIANCEHEALTH SEMINOLE,2401 WRANGLER BOULEVARD,SEMINOLE,OK,74868,GENERAL ACUTE CARE,OPEN,32,SEMINOLE,USA,35.24497499,-96.69840924,PROPRIETARY,32
774133,HILLCREST HOSPITAL SOUTH,8801 SOUTH 101ST EAST AVENUE,TULSA,OK,74133,GENERAL ACUTE CARE,OPEN,180,TULSA,USA,36.0353155,-95.86355986,PROPRIETARY,180
874104,HILLCREST MEDICAL CENTER,1120 SOUTH UTICA,TULSA,OK,74104,GENERAL ACUTE CARE,OPEN,620,TULSA,USA,36.14716118,-95.96851083,PROPRIETARY,620
2873401,MERCY HOSPITAL ARDMORE,1011 14TH AVENUE NW,ARDMORE,OK,73401,GENERAL ACUTE CARE,OPEN,190,CARTER,USA,34.18896758,-97.14084275,NON-PROFIT,190
12373438,MERCY HOSPITAL HEALDTON,3462 HOSPITAL RD,HEALDTON,OK,73438,CRITICAL ACCESS,OPEN,22,CARTER,USA,34.22286842,-97.49146648,NON-PROFIT,22
15154904,AURORA MED CTR OSHKOSH,855 N WESTHAVEN DRIVE,OSHKOSH,WI,54904,GENERAL ACUTE CARE,OPEN,84,WINNEBAGO,USA,44.02774678,-88.59521837,NON-PROFIT,84
9653024,AURORA MEDICAL CENTER,975 PORT WASHINGTON ROAD,GRAFTON,WI,53024,GENERAL ACUTE CARE,OPEN,127,OZAUKEE,USA,43.32365209,-87.92817154,NON-PROFIT,127
13974136,LAUREATE PSYCHIATRIC CLINIC AND HOSPITAL,6655 SOUTH YALE AVENUE,TULSA,OK,74136,PSYCHIATRIC,OPEN,90,TULSA,USA,36.06595501,-95.91859307,NON-PROFIT,90
574017,HILLCREST HOSPITAL CLAREMORE,1202 NORTH MUSKOGEE PLACE,CLAREMORE,OK,74017,GENERAL ACUTE CARE,OPEN,81,ROGERS,USA,36.32264454,-95.60467518,PROPRIETARY,81
3073644,GREAT PLAINS REGIONAL MEDICAL CENTER,1801 WEST THIRD STREET,ELK CITY,OK,73644,GENERAL ACUTE CARE,OPEN,62,BECKHAM,USA,35.41398306,-99.42625102,NON-PROFIT,62
9974467,WAGONER COMMUNITY HOSPITAL,1200 WEST CHEROKEE STREET,WAGONER,OK,74467,GENERAL ACUTE CARE,OPEN,100,WAGONER,USA,35.96152396,-95.3924305,GOVERNMENT - DISTRICT/AUTHORITY,100
6454143,AURORA MEDICAL CENTER BAY AREA,3003 UNIVERSITY DR,MARINETTE,WI,54143,GENERAL ACUTE CARE,OPEN,99,MARINETTE,USA,45.07196868,-87.61769653,NON-PROFIT,55
131274447,MUSCOGEE (CREEK) NATION MEDICAL CENTER,1401 MORRIS DRIVE,OKMULGEE,OK,74447,GENERAL ACUTE CARE,OPEN,66,OKMULGEE,USA,35.61118802,-95.952485,NOT AVAILABLE,66
14353066,AURORA MEDICAL CENTER SUMMIT,36500 AURORA DRIVE,SUMMIT,WI,53066,GENERAL ACUTE CARE,OPEN,117,WAUKESHA,USA,43.06591206,-88.46757865,NON-PROFIT,117
12353083,AURORA SHEBOYGAN MEM MED CTR,2629 N 7TH ST,SHEBOYGAN,WI,53083,GENERAL ACUTE CARE,OPEN,185,SHEBOYGAN,USA,43.77338685,-87.70999507,NON-PROFIT,185
5774133,SAINT FRANCIS HOSPITAL SOUTH,10501 EAST 91ST STREEET,TULSA,OK,74133,GENERAL ACUTE CARE,OPEN,96,TULSA,USA,36.03358225,-95.8573201,NON-PROFIT,96
5973534,DUNCAN REGIONAL HOSPITAL,1407 NORTH WHISENANT DRIVE,DUNCAN,OK,73534,GENERAL ACUTE CARE,OPEN,138,STEPHENS,USA,34.52031753,-97.975948,NON-PROFIT,110
131174820,MERCY HOSPITAL ADA,430 NORTH MONTA VISTA,ADA,OK,74820,GENERAL ACUTE CARE,OPEN,156,PONTOTOC,USA,34.77827025,-96.63336758,NON-PROFIT,144
2673542,FREDERICK MEDICAL CLINIC,319 EAST JOSEPHINE AVENUE,FREDERICK,OK,73542,GENERAL ACUTE CARE,CLOSED,37,TILLMAN,USA,34.40377445,-99.0136548,GOVERNMENT - DISTRICT/AUTHORITY,37
14737331,STARR REGIONAL MEDICAL CENTER ETOWAH,886 HIGHWAY 411 NORTH,ETOWAH,TN,37331,GENERAL ACUTE CARE,OPEN,72,MCMINN,USA,35.34509862,-84.52271936,NON-PROFIT,72
603570,ANDROSCOGGIN VALLEY HOSPITAL,59 PAGE HILL RD,BERLIN,NH,3570,GENERAL ACUTE CARE,OPEN,25,COOS,USA,44.4869509,-71.1552539,NON-PROFIT,25
2703584,WEEKS MEDICAL CENTER,173 MIDDLE STREET,LANCASTER,NH,3584,GENERAL ACUTE CARE,OPEN,25,COOS,USA,44.48623037,-71.55433993,NON-PROFIT,25
18262056,ST FRANCIS HOSPITAL,1215 FRANCISCAN DR,LITCHFIELD,IL,62056,CRITICAL ACCESS,OPEN,25,MONTGOMERY,USA,39.18121356,-89.63905575,NON-PROFIT,25
15061462,OSF HOLY FAMILY MEDICAL CENTER,1000 W HARLEM AVENUE,MONMOUTH,IL,61462,CRITICAL ACCESS,OPEN,23,WARREN,USA,40.92225293,-90.65830134,NON-PROFIT,23
16161270,MORRISON COMMUNITY HOSPITAL,303 N JACKSON STREET,MORRISON,IL,61270,CRITICAL ACCESS,OPEN,36,WHITESIDE,USA,41.80893488,-89.95787808,GOVERNMENT - DISTRICT/AUTHORITY,36
16562681,SARAH D CULBERTSON MEMORIAL HOSPITAL,238 SOUTH CONGRESS STREET,RUSHVILLE,IL,62681,CRITICAL ACCESS,OPEN,46,SCHUYLER,USA,40.1181628,-90.5643155,GOVERNMENT - DISTRICT/AUTHORITY,46
15462812,ABRAHAM LINCOLN MEMORIAL HOSPITAL,200 STAHLHUT DRIVE,LINCOLN,IL,62656,CRITICAL ACCESS,OPEN,25,LOGAN,USA,40.1537865,-89.38989355,NON-PROFIT,25
15562960,MASSAC MEMORIAL HOSPITAL,"28 CHICK STREET, PO BOX 850",METROPOLIS,IL,62960,CRITICAL ACCESS,OPEN,25,MASSAC,USA,37.16637476,-88.74004867,GOVERNMENT - DISTRICT/AUTHORITY,25
15261944,PARIS COMMUNITY HOSPITAL,721 E COURT STREET,PARIS,IL,61944,CRITICAL ACCESS,OPEN,25,EDGAR,USA,39.60684004,-87.6776547,NON-PROFIT,25
699669,CENTRAL PENINSULA GENERAL HOSPITAL,250 HOSPITAL PLACE,SOLDOTNA,AK,99669,GENERAL ACUTE CARE,OPEN,108,KENAI PENINSULA,USA,60.49316905,-151.077827,NON-PROFIT,108
180830033,ATLANTA VA HEALTH MEDICAL CENTER,1670 CLAIRMONT ROAD,DECATUR,GA,30033,MILITARY,OPEN,-999,DEKALB,USA,33.801861,-84.311425,GOVERNMENT - FEDERAL,466
14030606,PIEDMONT ATHENS REGIONAL MED CENTER,1199 PRINCE AVENUE,ATHENS,GA,30606,GENERAL ACUTE CARE,OPEN,359,CLARKE,USA,33.96129247,-83.39794507,NON-PROFIT,359
1125801,BECKLEY ARH HOSPITAL,306 STANAFORD ROAD,BECKLEY,WV,25801,GENERAL ACUTE CARE,OPEN,173,RALEIGH,USA,37.7988327,-81.16818375,NON-PROFIT,173
7642303,OWENSBORO HEALTH,811 E PARRISH AVE,OWENSBORO,KY,42303,GENERAL ACUTE CARE,OPEN,447,DAVIESS,USA,37.766669,-87.100834,NON-PROFIT,-999
1299701,FAIRBANKS MEMORIAL HOSPITAL,1650 COWLES STREET,FAIRBANKS,AK,99701,GENERAL ACUTE CARE,OPEN,217,FAIRBANKS NORTH STAR,USA,64.83174471,-147.7393928,NON-PROFIT,217
2499645,MAT-SU REGIONAL MEDICAL CENTER,2500 S. WOODWORTH LOOP,PALMER,AK,99645,GENERAL ACUTE CARE,OPEN,74,MATANUSKA-SUSITNA,USA,61.56289358,-149.2583112,PROPRIETARY,74
2699686,PROVIDENCE VALDEZ MEDICAL CENTER,911 MEALS AVENUE,VALDEZ,AK,99686,GENERAL ACUTE CARE,OPEN,21,VALDEZ-CORDOVA,USA,61.13653378,-146.3465517,GOVERNMENT - LOCAL,21
2299752,MANIILAQ MEDICAL CENTER,436 5TH AVE.,KOTZEBUE,AK,99752,CRITICAL ACCESS,OPEN,17,NORTHWEST ARCTIC,USA,66.89600162,-162.5868263,NON-PROFIT,17
1799835,MT EDGECUMBE HOSPITAL - SEARHC,222 TONGASS DRIVE,SITKA,AK,99835,CRITICAL ACCESS,OPEN,27,SITKA,USA,57.05156556,-135.3548767,NON-PROFIT,27
3438562,JACKSON COUNTY HOSPITAL,620 HOSPITAL DRIVE,GAINESBORO,TN,38562,GENERAL ACUTE CARE,CLOSED,-999,JACKSON,USA,36.34880706,-85.65624427,NON-PROFIT,-999
8038401,MAURY REGIONAL HOSPITAL,1224 TROTWOOD AVENUE,COLUMBIA,TN,38401,GENERAL ACUTE CARE,OPEN,255,MAURY,USA,35.60716387,-87.06689111,GOVERNMENT - LOCAL,255
8338305,WEST TENNESSEE HEALTHCARE NORTH HOSPITAL,367 HOSPITAL BLVD.,JACKSON,TN,38305,GENERAL ACUTE CARE,OPEN,152,MADISON,USA,35.68444711,-88.85404848,PROPRIETARY,152
5159405,GREAT FALLS CLINIC MEDICAL CENTER,1411 9TH ST SOUTH,GREAT FALLS,MT,59405,GENERAL ACUTE CARE,OPEN,19,CASCADE,USA,47.48935452,-111.2913526,PROPRIETARY,19
4382931,WYOMING STATE HOSPITAL,831 HIGHWAY 150 SOUTH,EVANSTON,WY,82931,PSYCHIATRIC,OPEN,183,UINTA,USA,41.26382872,-110.9470982,GOVERNMENT - STATE,183
6538242,HENRY COUNTY MEDICAL CENTER,301 TYSON AVENUE,PARIS,TN,38242,GENERAL ACUTE CARE,OPEN,142,HENRY,USA,36.29654269,-88.31030459,GOVERNMENT - DISTRICT/AUTHORITY,142
10840330,EPHRAIM MCDOWELL JAMES B. HAGGIN MEMORIAL HOSPITAL,464 LINDEN AVE.,HARRODSBURG,KY,40330,CRITICAL ACCESS,OPEN,25,MERCER,USA,37.75706388,-84.84873911,NON-PROFIT,25
137830,METHODIST MEDICAL CENTER OF OAK RIDGE,990 OAK RIDGE TURNPIKE,OAK RIDGE,TN,37830,GENERAL ACUTE CARE,OPEN,301,ANDERSON,USA,36.02454511,-84.24508553,NON-PROFIT,301
437367,ERLANGER BLEDSOE,71 WHEELERTOWN AVE,PIKEVILLE,TN,37367,GENERAL ACUTE CARE,OPEN,25,BLEDSOE,USA,35.62068597,-85.19086883,GOVERNMENT - DISTRICT/AUTHORITY,25
14837371,STARR REGIONAL MEDICAL CENTER,1114 W MADISON AVE,ATHENS,TN,37371,GENERAL ACUTE CARE,OPEN,190,MCMINN,USA,35.44081499,-84.60735287,PROPRIETARY,190
2237207,TRISTAR SKYLINE MEDICAL CENTER,3441 DICKERSON PIKE,NASHVILLE,TN,37207,GENERAL ACUTE CARE,OPEN,213,DAVIDSON,USA,36.24534093,-86.74961898,PROPRIETARY,213
7737402,KINDRED HOSPITAL - CHATTANOOGA,709 WALNUT STREET,CHATTANOOGA,TN,37402,LONG TERM CARE,OPEN,49,HAMILTON,USA,35.04757814,-85.30770622,PROPRIETARY,49
2737403,ERLANGER MEDICAL CENTER,975 EAST THIRD STREET,CHATTANOOGA,TN,37403,GENERAL ACUTE CARE,OPEN,560,HAMILTON,USA,35.04889413,-85.29004745,GOVERNMENT - DISTRICT/AUTHORITY,560
6037172,NORTHCREST MEDICAL CENTER,100 NORTHCREST DRIVE,SPRINGFIELD,TN,37172,GENERAL ACUTE CARE,OPEN,109,ROBERTSON,USA,36.47848008,-86.88690193,NON-PROFIT,109
637762,JELLICO MEDICAL CENTER,188 HOSPITAL LANE,JELLICO,TN,37762,GENERAL ACUTE CARE,OPEN,54,CAMPBELL,USA,36.57370136,-84.12854359,NON-PROFIT,54
10237604,JOHNSON CITY MEDICAL CENTER,400 NORTH STATE OF FRANKLIN ROAD,JOHNSON CITY,TN,37604,GENERAL ACUTE CARE,OPEN,514,WASHINGTON,USA,36.3078431,-82.38456264,NON-PROFIT,585
15937067,WILLIAMSON MEDICAL CENTER,4321 CAROTHERS PARKWAY,FRANKLIN,TN,37067,GENERAL ACUTE CARE,OPEN,185,WILLIAMSON,USA,35.91616226,-86.81925004,GOVERNMENT - LOCAL,185
182271306,"RIVERSIDE HOSPITAL OF LOUISIANA, INC.",13 HEYMAN LANE,ALEXANDRIA,LA,71306,LONG TERM CARE,OPEN,-999,RAPIDES,USA,31.301332,-92.487302,NOT AVAILABLE,28
15137321,RHEA MEDICAL CENTER,9400 RHEA COUNTY HIGHWAY,DAYTON,TN,37321,GENERAL ACUTE CARE,OPEN,25,RHEA,USA,35.52910134,-84.98177946,GOVERNMENT - LOCAL,25
6137130,SAINT THOMAS RUTHERFORD HOSPITAL,1700 MEDICAL CENTER PARKWAY,MURFREESBORO,TN,37130,GENERAL ACUTE CARE,OPEN,286,RUTHERFORD,USA,35.86057912,-86.42503138,NON-PROFIT,286
4037917,TENNOVA HEALTHCARE PHYSICIANS REGIONAL MEDICAL CENTER,900 EAST OAK HILL AVENUE,KNOXVILLE,TN,37917,GENERAL ACUTE CARE,OPEN,243,KNOX,USA,35.99238358,-83.92681776,PROPRIETARY,243
11337620,BRISTOL REGIONAL MEDICAL CENTER,1 MEDICAL PARK BOULEVARD,BRISTOL,TN,37620,GENERAL ACUTE CARE,OPEN,348,SULLIVAN,USA,36.58551645,-82.25692327,NON-PROFIT,348
15237869,HANCOCK COUNTY HOSPITAL,1519 MAIN STREET,SNEEDVILLE,TN,37869,CRITICAL ACCESS,OPEN,10,HANCOCK,USA,36.53333298,-83.21510814,NON-PROFIT,10
11537660,HOLSTON VALLEY MEDICAL CENTER,130 WEST RAVINE ROAD,KINGSPORT,TN,37660,GENERAL ACUTE CARE,OPEN,505,SULLIVAN,USA,36.55410317,-82.55460725,NON-PROFIT,505
566839,COFFEY COUNTY HOSPITAL,801 NORTH 4TH STREET,BURLINGTON,KS,66839,GENERAL ACUTE CARE,OPEN,78,COFFEY,USA,38.20227177,-95.73769964,GOVERNMENT - LOCAL,78
21210305,STATEN ISLAND UNIVERSITY HOSPITAL - SOUTH,375 SEGUINE AVENUE,STATEN ISLAND,NY,10305,GENERAL ACUTE CARE,OPEN,206,RICHMOND,USA,40.51656928,-74.19646609,NON-PROFIT,206
2600731,HOSP SAN CRISTOBAL,506 CARR ROAD,COTO LAUREL,PR,731,SPECIAL,OPEN,103,PONCE,PRI,18.03967485,-66.54740673,PROPRIETARY,103
190270121,OCHSNER REHABILITATION HOSPITAL,2614 JEFFERSON HWY,JEFFERSON,LA,70121,REHABILITATION,OPEN,-999,JEFFERSON,USA,29.9615422,-90.1542215,NOT AVAILABLE,56
4667005,SOUTH CENTRAL KS MED CENTER,6401 PATTERSON PARKWAY,ARKANSAS CITY,KS,67005,GENERAL ACUTE CARE,OPEN,37,COWLEY,USA,37.13299682,-97.03850329,GOVERNMENT - LOCAL,37
9366757,WILSON MEDICAL CENTER,REECE CAMPUS 2600 OTTAWA ROAD,NEODESHA,KS,66757,GENERAL ACUTE CARE,OPEN,15,WILSON,USA,37.40957059,-95.70833215,GOVERNMENT - LOCAL,15
1567530,THE UNIVERSITY OF KANSAS HEALTH SYSTEM GREAT BEND CAMPUS,514 CLEVELAND STREET,GREAT BEND,KS,67530,GENERAL ACUTE CARE,OPEN,33,BARTON,USA,38.35616569,-98.79071269,PROPRIETARY,33
9666521,COMMUNITY HOSPITAL ONAGA AND ST MARYS CAMPUS,120 WEST 8TH STREET,ONAGA,KS,66521,GENERAL ACUTE CARE,OPEN,159,POTTAWATOMIE,USA,39.4959886,-96.17142807,NON-PROFIT,159
184270605,AVAIL HEALTH LAKE CHARLES HOSPITAL,3730 NELSON ROAD,LAKE CHARLES,LA,70605,GENERAL ACUTE CARE,OPEN,-999,CALCASIEU,USA,30.19037837,-93.25037016,NOT AVAILABLE,10
900605,HOSPITAL BUEN SAMARITANO,CARR 2 KM 141-1 AVE SEVERIANO CUEVAS 18 BO. CAIMITAL BAJO,AGUADILLA,PR,605,GENERAL ACUTE CARE,OPEN,154,AGUADILLA,PRI,18.44280934,-67.15088511,NON-PROFIT,154
1500681,HOSP BELLA VISTA,STATE ROAD 349,MAYAGUEZ,PR,681,GENERAL ACUTE CARE,OPEN,157,MAYAGUEZ,PRI,18.18676401,-67.11919677,NON-PROFIT,157
1800683,HOSP DE LA CONCEPCION,CARR 2 KM 173 BO CAIN ALTO,SAN GERMAN,PR,683,GENERAL ACUTE CARE,OPEN,167,SAN GERMAN,PRI,18.09880911,-67.03816476,NON-PROFIT,167
3300720,CENTRO DE SALUD INTEGRAL DE OROCOVIS,PR-155 AVE LUIS MUÑOZ MARIN,OROCOVIS PUEBLO,PR,720,GENERAL ACUTE CARE,OPEN,-999,OROCOVIS,PRI,18.226651,-66.39434514,NOT AVAILABLE,-999
3700737,HOSP GENERAL MENONITA - CAYEY,4 H MENDOZA STREET,CAYEY,PR,737,GENERAL ACUTE CARE,OPEN,208,CAYEY,PRI,18.1240463,-66.14748152,NON-PROFIT,208
4400902,ASHFORD PRESBYTERIAN COMMUNITY HOSPITAL INC,1451 AVENUE ASHFORD,SAN JUAN,PR,902,GENERAL ACUTE CARE,OPEN,195,SAN JUAN,PRI,18.45599329,-66.06546953,NON-PROFIT,195
600674,MANATI MEDICAL CENTER DR ALEJANDRO OTERO LOPEZ,CALLE HERNANDEZ CARRION 668,MANATI PUEBLO,PR,674,GENERAL ACUTE CARE,OPEN,-999,MANATI,PRI,18.43455435,-66.4824951,NOT AVAILABLE,251
4300922,ADMINISTRACION DE SERVICIOS MEDICOS DE PR (ASEM),CENTRO MEDICO,MONACILLO URBANO,PR,922,GENERAL ACUTE CARE,OPEN,-999,SAN JUAN,PRI,18.3955074,-66.07284079,NOT AVAILABLE,68
1177515,UTMB ANGLETON-DANBURY MEDICAL CENTER,132 EAST HOSPITAL DRIVE,ANGLETON,TX,77515,GENERAL ACUTE CARE,OPEN,64,BRAZORIA,USA,29.1838554,-95.40543329,PROPRIETARY,64
2378705,ST. DAVID'S MEDICAL CENTER,919 EAST 32ND STREET,AUSTIN,TX,78705,GENERAL ACUTE CARE,OPEN,350,TRAVIS,USA,30.28989221,-97.72604637,NON-PROFIT,350
4176015,MEDICAL CITY OF ARLINGTON,3301 MATLOCK ROAD,ARLINGTON,TX,76015,GENERAL ACUTE CARE,OPEN,342,TARRANT,USA,32.69232531,-97.11271638,PROPRIETARY,342
4276020,TEXAS HEALTH HARRIS METHODIST HOSPITAL AZLE,108 DENVER TRAIL,AZLE,TX,76020,GENERAL ACUTE CARE,OPEN,36,TARRANT,USA,32.88096648,-97.53309865,NON-PROFIT,36
4677521,HOUSTON METHODIST BAYTOWN HOSPITAL,4401 GARTH ROAD,BAYTOWN,TX,77521,GENERAL ACUTE CARE,OPEN,205,HARRIS,USA,29.76911627,-94.97971661,NON-PROFIT,205
6177401,MEMORIAL HERMANN ORTHOPEDIC AND SPINE HOSPITAL,5410 WEST LOOP SOUTH,BELLAIRE,TX,77401,GENERAL ACUTE CARE,OPEN,64,HARRIS,USA,29.72380542,-95.46121904,NON-PROFIT,64
6277514,BAYSIDE COMMUNITY HOSPITAL,200 HOSPITAL DRIVE,ANAHUAC,TX,77514,GENERAL ACUTE CARE,OPEN,14,CHAMBERS,USA,29.7525574,-94.68744667,GOVERNMENT - LOCAL,14
6778758,NORTH AUSTIN MEDICAL CENTER,12221 MOPAC SERVICE ROAD,AUSTIN,TX,78758,GENERAL ACUTE CARE,OPEN,378,TRAVIS,USA,30.41148803,-97.7062274,NON-PROFIT,378
1762801,ST MARYS HOSPITAL,400 NORTH PLEASANT AVENUE,CENTRALIA,IL,62801,GENERAL ACUTE CARE,OPEN,113,MARION,USA,38.53028143,-89.11720631,NON-PROFIT,113
5700919,HOSP ONCOLOGICO DR ISAAC GONZALEZ MARTINEZ,CENTRO MEDICO,MONACILLO URBANO,PR,919,GENERAL ACUTE CARE,OPEN,-999,SAN JUAN,PRI,18.39633673,-66.07253398,NOT AVAILABLE,143
5400926,HIMA SAN PABLO CUPEY,138 AVENUE WINSTON CHURCHILL,SAN JUAN,PR,926,SPECIAL,OPEN,60,SAN JUAN,PRI,18.37259235,-66.04622543,NON-PROFIT,60
81532026,UNION CORRECTIONAL INSTITUTE HOSPITAL,7819 NW 228TH ST,RAIFORD,FL,32026,SPECIAL,OPEN,-999,UNION,USA,30.06705191,-82.19385038,NOT AVAILABLE,59
81632806,WINNIE PALMER HOSPITAL FOR WOMEN & BABIES,83 W MILLER ST,ORLANDO,FL,32806,GENERAL ACUTE CARE,OPEN,-999,ORANGE,USA,28.52433987,-81.3791536,NOT AVAILABLE,285
82032514,WEST FLORIDA REHABILITATION INSTITUTE,8391 N DAVIS HWY,PENSACOLA,FL,32514,REHABILITATION,OPEN,-999,ESCAMBIA,USA,30.51634012,-87.21686302,NOT AVAILABLE,58
82633607,ST JOSEPH'S WOMEN'S HOSPITAL,3030 W DR ML KING JR BLVD,TAMPA,FL,33607,GENERAL ACUTE CARE,OPEN,-999,HILLSBOROUGH,USA,27.98023088,-82.49220872,NON-PROFIT,-999
17176448,EASTLAND MEMORIAL HOSPITAL,304 SOUTH DAUGHERTY AVENUE,EASTLAND,TX,76448,GENERAL ACUTE CARE,OPEN,52,EASTLAND,USA,32.39982064,-98.82114248,GOVERNMENT - DISTRICT/AUTHORITY,52
19079938,THE HOSPITALS OF PROVIDENCE EAST CAMPUS,3280 JOE BATTLE BOULEVARD,EL PASO,TX,79938,GENERAL ACUTE CARE,OPEN,182,EL PASO,USA,31.79037063,-106.2645055,PROPRIETARY,182
19475840,FREESTONE MEDICAL CENTER,125 NEWMAN STREET,FAIRFIELD,TX,75840,GENERAL ACUTE CARE,OPEN,37,FREESTONE,USA,31.72534374,-96.17059823,NON-PROFIT,37
19778114,CONNALLY MEMORIAL MEDICAL CENTER,499 10TH STREET,FLORESVILLE,TX,78114,GENERAL ACUTE CARE,OPEN,44,WILSON,USA,29.15850063,-98.17497259,GOVERNMENT - DISTRICT/AUTHORITY,44
21276104,BAYLOR SURGICAL HOSPITAL AT FORT WORTH,750 12TH AVENUE,FORT WORTH,TX,76104,GENERAL ACUTE CARE,OPEN,34,TARRANT,USA,32.73685764,-97.34897946,PROPRIETARY,34
21475034,BAYLOR SCOTT & WHITE MEDICAL CENTER - FRISCO,5601 WARREN PARKWAY,FRISCO,TX,75034,GENERAL ACUTE CARE,OPEN,68,COLLIN,USA,33.10449021,-96.83782532,PROPRIETARY,68
21876240,NORTH TEXAS MEDICAL CENTER,1900 HOSPITAL BOULEVARD,GAINESVILLE,TX,76240,GENERAL ACUTE CARE,OPEN,60,COOKE,USA,33.64636264,-97.1627319,GOVERNMENT - DISTRICT/AUTHORITY,60
22078624,HILL COUNTRY MEMORIAL HOSPITAL,1020 STATE HIGHWAY 16,FREDERICKSBURG,TX,78624,GENERAL ACUTE CARE,OPEN,86,GILLESPIE,USA,30.262519,-98.88184327,NON-PROFIT,86
23075401,HUNT REGIONAL MEDICAL CENTER GREENVILLE,4215 JOE RAMSEY BOULEVARD,GREENVILLE,TX,75401,GENERAL ACUTE CARE,OPEN,192,HUNT,USA,33.12231408,-96.12397074,GOVERNMENT - DISTRICT/AUTHORITY,192
23178629,MEMORIAL HOSPITAL,1110 N SARAH DEWITT DRIVE,GRAPEVINE,TX,78629,GENERAL ACUTE CARE,OPEN,34,GONZALES,USA,29.51759211,-97.42934318,GOVERNMENT - DISTRICT/AUTHORITY,34
23376450,GRAHAM REGIONAL MEDICAL CENTER,1301 MONTGOMERY ROAD,GRAPEVINE,TX,76450,GENERAL ACUTE CARE,OPEN,42,YOUNG,USA,33.08958211,-98.58396742,GOVERNMENT - LOCAL,42
23777964,LAVACA MEDICAL CENTER,1400 NORTH TEXANA STREET,HARLINGEN,TX,77964,GENERAL ACUTE CARE,OPEN,25,LAVACA,USA,29.45740267,-96.93821283,GOVERNMENT - DISTRICT/AUTHORITY,25
25278861,MEDINA REGIONAL HOSPITAL,3100 AVENUE E,HOUSTON,TX,78861,GENERAL ACUTE CARE,OPEN,25,MEDINA,USA,29.33462296,-99.13448254,GOVERNMENT - DISTRICT/AUTHORITY,25
26377030,CHI ST LUKES HEALTH BAYLOR COLLEGE OF MEDICINE MEDICAL CENTER,6720 BERTNER STREET,GRANBURY,TX,77030,GENERAL ACUTE CARE,OPEN,864,HARRIS,USA,29.70773116,-95.40044497,NON-PROFIT,864
29877091,MEMORIAL HERMANN NORTHEAST HOSPITAL,18951 MEMORIAL NORTH,HUMBLE,TX,77091,GENERAL ACUTE CARE,OPEN,255,HARRIS,USA,29.99551204,-95.27612889,NON-PROFIT,255
31375951,CHRISTUS JASPER MEMORIAL HOSPITAL,1275 MARVIN HANCOCK DRIVE,JASPER,TX,75951,GENERAL ACUTE CARE,OPEN,59,JASPER,USA,30.90789453,-94.00955331,NON-PROFIT,59
31576849,KIMBLE HOSPITAL,349 REID RD,JUNCTION,TX,76849,GENERAL ACUTE CARE,OPEN,15,KIMBLE,USA,30.49847308,-99.78056091,PROPRIETARY,15
31677494,MEMORIAL HERMANN KATY HOSPITAL,23900 KATY FREEWAY,KATY,TX,77494,GENERAL ACUTE CARE,OPEN,208,HARRIS,USA,29.787311,-95.78625453,NON-PROFIT,208
32478028,PETERSON REGIONAL MEDICAL CENTER,551 HILL COUNTRY DIRVE,KERRVILLE,TX,78028,GENERAL ACUTE CARE,OPEN,124,KERR,USA,30.04346599,-99.1528689,NON-PROFIT,124
32978640,ASCENSION SETON MEDICAL CENTER HAYS,6001 KYLE PARKWAY,KYLE,TX,78640,GENERAL ACUTE CARE,OPEN,112,HAYS,USA,30.00840999,-97.85297745,NON-PROFIT,112
34179336,COVENANT HOSPITAL LEVELLAND,1900 COLLEGE AVENUE,LEVELLAND,TX,79336,GENERAL ACUTE CARE,OPEN,48,HOCKLEY,USA,33.57268652,-102.3688972,NON-PROFIT,48
34578643,BAYLOR SCOTT AND WHITE HEALTHCARE - LLANO,200 WEST OLLIE STREET,LLANO,TX,78643,GENERAL ACUTE CARE,OPEN,30,LLANO,USA,30.74264962,-98.67765575,NON-PROFIT,30
34875601,CHRISTUS GOOD SHEPHERD MEDICAL CENTER - LONGVIEW,700 EAST MARSHALL AVENUE,LONGVIEW,TX,75601,GENERAL ACUTE CARE,OPEN,425,GREGG,USA,32.50074986,-94.72985399,NON-PROFIT,425
37875070,METHODIST MCKINNEY HOSPITAL,8000 WEST ELDORADO PARKWAY,MCKINNEY,TX,75070,GENERAL ACUTE CARE,OPEN,23,COLLIN,USA,33.17652529,-96.7222958,PROPRIETARY,23
38978572,MISSION REGIONAL MEDICAL CENTER,900 SOUTH BRYAN ROAD,MISSION,TX,78572,GENERAL ACUTE CARE,OPEN,297,HIDALGO,USA,26.1963482,-98.31431722,NON-PROFIT,297
39275455,TITUS REGIONAL MEDICAL CENTER,2001 NORTH JEFFERSON AVENUE,MOUNT PLEASANT,TX,75455,GENERAL ACUTE CARE,OPEN,164,TITUS,USA,33.17559939,-94.97117494,GOVERNMENT - DISTRICT/AUTHORITY,164
39377058,HOUSTON METHODIST CLEAR LAKE HOSPITAL,18300 HOUSTON METHODIST DRIVE,NASSAU BAY,TX,77058,GENERAL ACUTE CARE,OPEN,178,HARRIS,USA,29.54924852,-95.08676363,NON-PROFIT,178
40375965,NACOGDOCHES MEDICAL CENTER,4920 N. E. STALLINGS DRIVE,NACOGDOCHES,TX,75965,GENERAL ACUTE CARE,OPEN,153,NACOGDOCHES,USA,31.65314431,-94.65387312,PROPRIETARY,153
96962002,SAINT CLARE'S HOSPITAL,915 EAST 5TH STREET,ALTON,IL,62002,GENERAL ACUTE CARE,OPEN,-999,MADISON,USA,38.89080496,-90.17092928,NOT AVAILABLE,-999
